[{"TimeTagId":{"ProgrammeId":"FREP41009277","Time":"00:29:07"},"Thumbnail":"https://nrkpssniktittprodwe.blob.core.windows.net/preview/FREP41009277AA_00_29_09.jpg","Lng":11.37156,"Lat":61.13222,"LocationName":"Rena","Confidence":60,"ClosestIndexPointId":4617975,"ClosestIndexPointTitle":"Rena: Birkebeinerrennet","FirstTimeTransmitted":"1977-03-19T00:00:00"},{"TimeTagId":{"ProgrammeId":"FREP41009277","Time":"00:16:40"},"Thumbnail":"https://nrkpssniktittprodwe.blob.core.windows.net/preview/FREP41009277AA_00_16_42.jpg","Lng":7.5041,"Lat":60.60167,"LocationName":"Finse","Confidence":60,"ClosestIndexPointId":4617971,"ClosestIndexPointTitle":"Finse: Om snø, vær og togtrafikk","FirstTimeTransmitted":"1977-03-19T00:00:00"},{"TimeTagId":{"ProgrammeId":"FREP41009277","Time":"00:11:50"},"Thumbnail":"https://nrkpssniktittprodwe.blob.core.windows.net/preview/FREP41009277AA_00_11_52.jpg","Lng":6.7179,"Lat":61.90259,"LocationName":"Stryn","Confidence":60,"ClosestIndexPointId":4617970,"ClosestIndexPointTitle":"Strynefjellet: Om fremtidig helårsvei","FirstTimeTransmitted":"1977-03-19T00:00:00"},{"TimeTagId":{"ProgrammeId":"FREP41009277","Time":"00:07:08"},"Thumbnail":"https://nrkpssniktittprodwe.blob.core.windows.net/preview/FREP41009277AA_00_07_10.jpg","Lng":10.75072,"Lat":60.38049,"LocationName":"Norge","Confidence":60,"ClosestIndexPointId":4617969,"ClosestIndexPointTitle":"Trandum: Befalsopplæring for jenter","FirstTimeTransmitted":"1977-03-19T00:00:00"},{"TimeTagId":{"ProgrammeId":"FREP41009277","Time":"00:03:23"},"Thumbnail":"https://nrkpssniktittprodwe.blob.core.windows.net/preview/FREP41009277AA_00_03_25.jpg","Lng":8.90622,"Lat":61.24866,"LocationName":"Beitostølen","Confidence":60,"ClosestIndexPointId":4617958,"ClosestIndexPointTitle":"Beitostølen: Helsesportsenter","FirstTimeTransmitted":"1977-03-19T00:00:00"},{"TimeTagId":{"ProgrammeId":"FREP41009277","Time":"00:21:03"},"Thumbnail":"https://nrkpssniktittprodwe.blob.core.windows.net/preview/FREP41009277AA_00_21_05.jpg","Lng":5.64727,"Lat":58.88806,"LocationName":"Sola","Confidence":60,"ClosestIndexPointId":4617972,"ClosestIndexPointTitle":"Sola; Bonde på Jæren","FirstTimeTransmitted":"1977-03-19T00:00:00"},{"TimeTagId":{"ProgrammeId":"FREP41009377","Time":"00:30:04"},"Thumbnail":"https://nrkpssniktittprodwe.blob.core.windows.net/preview/FREP419377-AR-199051346_00_30_06.jpg","Lng":9.49584,"Lat":63.45854,"LocationName":"Slørdal","Confidence":60,"ClosestIndexPointId":4627711,"ClosestIndexPointTitle":"Slørdal: Hjort","FirstTimeTransmitted":"1977-04-02T00:00:00"},{"TimeTagId":{"ProgrammeId":"FREP41009377","Time":"00:24:55"},"Thumbnail":"https://nrkpssniktittprodwe.blob.core.windows.net/preview/FREP419377-AR-199051346_00_24_57.jpg","Lng":10.72307,"Lat":59.94063,"LocationName":"Blindern","Confidence":60,"ClosestIndexPointId":4627707,"ClosestIndexPointTitle":"Oslo: Bedre værvarsling","FirstTimeTransmitted":"1977-04-02T00:00:00"},{"TimeTagId":{"ProgrammeId":"FREP41009377","Time":"00:19:59"},"Thumbnail":"https://nrkpssniktittprodwe.blob.core.windows.net/preview/FREP419377-AR-199051346_00_20_01.jpg","Lng":13.74848,"Lat":64.24858,"LocationName":"Sørli","Confidence":60,"ClosestIndexPointId":4627696,"ClosestIndexPointTitle":"Sørli: Bruk av snøscooter","FirstTimeTransmitted":"1977-04-02T00:00:00"},{"TimeTagId":{"ProgrammeId":"FREP41009377","Time":"00:14:59"},"Thumbnail":"https://nrkpssniktittprodwe.blob.core.windows.net/preview/FREP419377-AR-199051346_00_15_01.jpg","Lng":9.65557,"Lat":59.14171,"LocationName":"Porsgrunn","Confidence":60,"ClosestIndexPointId":4627695,"ClosestIndexPointTitle":"Porsgrunn: Mekanisk verksted","FirstTimeTransmitted":"1977-04-02T00:00:00"},{"TimeTagId":{"ProgrammeId":"FREP41009377","Time":"00:06:56"},"Thumbnail":"https://nrkpssniktittprodwe.blob.core.windows.net/preview/FREP419377-AR-199051346_00_06_58.jpg","Lng":7.45992,"Lat":61.44322,"LocationName":"Luster","Confidence":60,"ClosestIndexPointId":4627678,"ClosestIndexPointTitle":"Ornes: Bygging av trebåter","FirstTimeTransmitted":"1977-04-02T00:00:00"},{"TimeTagId":{"ProgrammeId":"FREP41009377","Time":"00:01:59"},"Thumbnail":"https://nrkpssniktittprodwe.blob.core.windows.net/preview/FREP419377-AR-199051346_00_02_01.jpg","Lng":17.17659,"Lat":68.77865,"LocationName":"Ibestad","Confidence":60,"ClosestIndexPointId":4627506,"ClosestIndexPointTitle":"Ibestad: Skoleelever med egen fastegudstjeneste","FirstTimeTransmitted":"1977-04-02T00:00:00"},{"TimeTagId":{"ProgrammeId":"FREP41009477","Time":"00:29:48"},"Thumbnail":"https://nrkpssniktittprodwe.blob.core.windows.net/preview/FREP41009477_00_29_50.jpg","Lng":10.79101,"Lat":59.66366,"LocationName":"Ås","Confidence":60,"ClosestIndexPointId":4632376,"ClosestIndexPointTitle":"Ås: Foring av elg på Landbrukshøyskolen","FirstTimeTransmitted":"1977-04-16T00:00:00"},{"TimeTagId":{"ProgrammeId":"FREP41009477","Time":"00:25:20"},"Thumbnail":"https://nrkpssniktittprodwe.blob.core.windows.net/preview/FREP41009477_00_25_22.jpg","Lng":10.20575,"Lat":61.69606,"LocationName":"Gråhøgdbu","Confidence":60,"ClosestIndexPointId":4632358,"ClosestIndexPointTitle":"Ringebufjellet: Fjellturister på selvbetjeningshytte","FirstTimeTransmitted":"1977-04-16T00:00:00"},{"TimeTagId":{"ProgrammeId":"FREP41009477","Time":"00:04:44"},"Thumbnail":"https://nrkpssniktittprodwe.blob.core.windows.net/preview/FREP41009477_00_04_46.jpg","Lng":9.49584,"Lat":63.45854,"LocationName":"Slørdal","Confidence":60,"ClosestIndexPointId":4632336,"ClosestIndexPointTitle":"Slørdal: Dårlige TV-forhold","FirstTimeTransmitted":"1977-04-16T00:00:00"},{"TimeTagId":{"ProgrammeId":"FREP41009477","Time":"00:02:02"},"Thumbnail":"https://nrkpssniktittprodwe.blob.core.windows.net/preview/FREP41009477_00_02_04.jpg","Lng":25.51879,"Lat":69.47223,"LocationName":"Karasjok","Confidence":60,"ClosestIndexPointId":4632335,"ClosestIndexPointTitle":"Karasjok: Radio- og TV-forbindelser","FirstTimeTransmitted":"1977-04-16T00:00:00"},{"TimeTagId":{"ProgrammeId":"FREP41009477","Time":"00:19:21"},"Thumbnail":"https://nrkpssniktittprodwe.blob.core.windows.net/preview/FREP41009477_00_19_23.jpg","Lng":17.73482,"Lat":69.1702,"LocationName":"Tranøy","Confidence":60,"ClosestIndexPointId":4632357,"ClosestIndexPointTitle":"Tranøy: Barnehagesituasjonen i Tranøy","FirstTimeTransmitted":"1977-04-16T00:00:00"},{"TimeTagId":{"ProgrammeId":"FREP41009477","Time":"00:14:10"},"Thumbnail":"https://nrkpssniktittprodwe.blob.core.windows.net/preview/FREP41009477_00_14_12.jpg","Lng":5.75,"Lat":58.75,"LocationName":"Jæren","Confidence":60,"ClosestIndexPointId":4632356,"ClosestIndexPointTitle":"Jæren: Steingjerder","FirstTimeTransmitted":"1977-04-16T00:00:00"},{"TimeTagId":{"ProgrammeId":"FREP41009477","Time":"00:09:10"},"Thumbnail":"https://nrkpssniktittprodwe.blob.core.windows.net/preview/FREP41009477_00_09_12.jpg","Lng":13.38234,"Lat":68.04534,"LocationName":"Lofoten","Confidence":60,"ClosestIndexPointId":4632355,"ClosestIndexPointTitle":"Lofoten: Lofotfiske 1977","FirstTimeTransmitted":"1977-04-16T00:00:00"},{"TimeTagId":{"ProgrammeId":"FREP41009577","Time":"00:29:33"},"Thumbnail":"https://nrkpssniktittprodwe.blob.core.windows.net/preview/FREP41009577AA_00_29_35.jpg","Lng":12.37163,"Lat":60.60349,"LocationName":"Finnskogen","Confidence":60,"ClosestIndexPointId":3291269,"ClosestIndexPointTitle":"Finnskogen: Vår","FirstTimeTransmitted":"1977-04-30T00:00:00"},{"TimeTagId":{"ProgrammeId":"FREP41009577","Time":"00:26:21"},"Thumbnail":"https://nrkpssniktittprodwe.blob.core.windows.net/preview/FREP41009577AA_00_26_23.jpg","Lng":8.588541,"Lat":59.878224,"LocationName":"Rjukan","Confidence":100,"ClosestIndexPointId":3291268,"ClosestIndexPointTitle":"Rjukan: Vår","FirstTimeTransmitted":"1977-04-30T00:00:00"},{"TimeTagId":{"ProgrammeId":"FREP41009577","Time":"00:23:02"},"Thumbnail":"https://nrkpssniktittprodwe.blob.core.windows.net/preview/FREP41009577AA_00_23_04.jpg","Lng":7.99686,"Lat":58.14642,"LocationName":"Kristiansand","Confidence":60,"ClosestIndexPointId":3291267,"ClosestIndexPointTitle":"Kristiansand: Vår i sørlandsbyen","FirstTimeTransmitted":"1977-04-30T00:00:00"},{"TimeTagId":{"ProgrammeId":"FREP41009577","Time":"00:19:14"},"Thumbnail":"https://nrkpssniktittprodwe.blob.core.windows.net/preview/FREP41009577AA_00_19_16.jpg","Lng":5.75,"Lat":58.75,"LocationName":"Jæren","Confidence":60,"ClosestIndexPointId":3291266,"ClosestIndexPointTitle":"Jæren: Vår","FirstTimeTransmitted":"1977-04-30T00:00:00"},{"TimeTagId":{"ProgrammeId":"FREP41009577","Time":"00:15:09"},"Thumbnail":"https://nrkpssniktittprodwe.blob.core.windows.net/preview/FREP41009577AA_00_15_11.jpg","Lng":6.656962,"Lat":60.327417,"LocationName":"Lofthus","Confidence":100,"ClosestIndexPointId":3291265,"ClosestIndexPointTitle":"Hardanger: Vår","FirstTimeTransmitted":"1977-04-30T00:00:00"},{"TimeTagId":{"ProgrammeId":"FREP41009577","Time":"00:11:05"},"Thumbnail":"https://nrkpssniktittprodwe.blob.core.windows.net/preview/FREP41009577AA_00_11_07.jpg","Lng":8.97416,"Lat":63.60155,"LocationName":"Hitra","Confidence":100,"ClosestIndexPointId":3291264,"ClosestIndexPointTitle":"Hitra: Vår ved Trondheimsfjorden","FirstTimeTransmitted":"1977-04-30T00:00:00"},{"TimeTagId":{"ProgrammeId":"FREP41009577","Time":"00:06:40"},"Thumbnail":"https://nrkpssniktittprodwe.blob.core.windows.net/preview/FREP41009577AA_00_06_42.jpg","Lng":12.070026,"Lat":67.505941,"LocationName":"Røst","Confidence":100,"ClosestIndexPointId":3291263,"ClosestIndexPointTitle":"Røst: Vår","FirstTimeTransmitted":"1977-04-30T00:00:00"},{"TimeTagId":{"ProgrammeId":"FREP41009577","Time":"00:03:02"},"Thumbnail":"https://nrkpssniktittprodwe.blob.core.windows.net/preview/FREP41009577AA_00_03_04.jpg","Lng":28.18467,"Lat":70.19977,"LocationName":"Tana","Confidence":60,"ClosestIndexPointId":3291262,"ClosestIndexPointTitle":"Enda vinter","FirstTimeTransmitted":"1977-04-30T00:00:00"},{"TimeTagId":{"ProgrammeId":"FREP43007577","Time":"00:09:14"},"Thumbnail":"https://nrkpssniktittprodwe.blob.core.windows.net/preview/FREP43007577AA_00_09_16.jpg","Lng":11.29835,"Lat":63.74603,"LocationName":"Levanger","Confidence":60,"ClosestIndexPointId":4636439,"ClosestIndexPointTitle":"Levanger: Innheradsferja","FirstTimeTransmitted":"1977-05-14T00:00:00"},{"TimeTagId":{"ProgrammeId":"FREP43007577","Time":"00:02:38"},"Thumbnail":"https://nrkpssniktittprodwe.blob.core.windows.net/preview/FREP43007577AA_00_02_40.jpg","Lng":5.98558,"Lat":61.9122,"LocationName":"Nordfjordeid","Confidence":60,"ClosestIndexPointId":4636437,"ClosestIndexPointTitle":"Nordfjordeid: Hingstesjå","FirstTimeTransmitted":"1977-05-14T00:00:00"},{"TimeTagId":{"ProgrammeId":"FREP43007577","Time":"00:30:04"},"Thumbnail":"https://nrkpssniktittprodwe.blob.core.windows.net/preview/FREP43007577AA_00_30_06.jpg","Lng":10.87197,"Lat":59.96395,"LocationName":"Ammerud","Confidence":60,"ClosestIndexPointId":4637151,"ClosestIndexPointTitle":"Ammerud: Planting av trær","FirstTimeTransmitted":"1977-05-14T00:00:00"},{"TimeTagId":{"ProgrammeId":"FREP43007577","Time":"00:27:09"},"Thumbnail":"https://nrkpssniktittprodwe.blob.core.windows.net/preview/FREP43007577AA_00_27_11.jpg","Lng":11.28428,"Lat":63.87823,"LocationName":"Inderøy","Confidence":60,"ClosestIndexPointId":4637150,"ClosestIndexPointTitle":"Inderøy: \"Plant et tre\"-aksjon","FirstTimeTransmitted":"1977-05-14T00:00:00"},{"TimeTagId":{"ProgrammeId":"FREP43007577","Time":"00:21:33"},"Thumbnail":"https://nrkpssniktittprodwe.blob.core.windows.net/preview/FREP43007577AA_00_21_35.jpg","Lng":19.22653,"Lat":69.24023,"LocationName":"Balsfjord","Confidence":60,"ClosestIndexPointId":4637149,"ClosestIndexPointTitle":"Balsfjord: Geiter","FirstTimeTransmitted":"1977-05-14T00:00:00"},{"TimeTagId":{"ProgrammeId":"FREP43007577","Time":"00:16:37"},"Thumbnail":"https://nrkpssniktittprodwe.blob.core.windows.net/preview/FREP43007577AA_00_16_39.jpg","Lng":7.5248,"Lat":58.3935,"LocationName":"Bjelland","Confidence":60,"ClosestIndexPointId":4637095,"ClosestIndexPointTitle":"Bjelland: Tønnestavproduksjon","FirstTimeTransmitted":"1977-05-14T00:00:00"},{"TimeTagId":{"ProgrammeId":"FREP43007577","Time":"00:12:54"},"Thumbnail":"https://nrkpssniktittprodwe.blob.core.windows.net/preview/FREP43007577AA_00_12_56.jpg","Lng":10.409,"Lat":59.22405,"LocationName":"Nøtterøy","Confidence":60,"ClosestIndexPointId":4636897,"ClosestIndexPointTitle":"Nøtterøy: Teatergruppe ved Linde skole for bevegelseshemmede","FirstTimeTransmitted":"1977-05-14T00:00:00"},{"TimeTagId":{"ProgrammeId":"FREP43007677","Time":"00:12:50"},"Thumbnail":"https://nrkpssniktittprodwe.blob.core.windows.net/preview/FREP43007677_00_12_52.jpg","Lng":12.78333,"Lat":65.21667,"LocationName":"Kolsvik","Confidence":60,"ClosestIndexPointId":4641247,"ClosestIndexPointTitle":"Sør-Helgeland: Gullet i Bindalen","FirstTimeTransmitted":"1977-05-28T00:00:00"},{"TimeTagId":{"ProgrammeId":"FREP43007677","Time":"00:01:52"},"Thumbnail":"https://nrkpssniktittprodwe.blob.core.windows.net/preview/FREP43007677_00_01_54.jpg","Lng":10.52452,"Lat":59.89217,"LocationName":"Sandvika","Confidence":60,"ClosestIndexPointId":4640896,"ClosestIndexPointTitle":"Sandvika: Sykkelreparasjon","FirstTimeTransmitted":"1977-05-28T00:00:00"},{"TimeTagId":{"ProgrammeId":"FREP43007677","Time":"00:22:50"},"Thumbnail":"https://nrkpssniktittprodwe.blob.core.windows.net/preview/FREP43007677_00_22_52.jpg","Lng":5.44796,"Lat":59.42167,"LocationName":"Tysvær","Confidence":60,"ClosestIndexPointId":4641375,"ClosestIndexPointTitle":"Tysvær: Cleng Peerson-huset","FirstTimeTransmitted":"1977-05-28T00:00:00"},{"TimeTagId":{"ProgrammeId":"FREP43007677","Time":"00:06:25"},"Thumbnail":"https://nrkpssniktittprodwe.blob.core.windows.net/preview/FREP43007677_00_06_27.jpg","Lng":6.90166,"Lat":62.62354,"LocationName":"Tomrefjorden","Confidence":60,"ClosestIndexPointId":4640942,"ClosestIndexPointTitle":"Tomrefjord: Arbeidsledighet etter fabrikknedleggelse","FirstTimeTransmitted":"1977-05-28T00:00:00"},{"TimeTagId":{"ProgrammeId":"FREP43007677","Time":"00:27:37"},"Thumbnail":"https://nrkpssniktittprodwe.blob.core.windows.net/preview/FREP43007677_00_27_39.jpg","Lng":10.02701,"Lat":59.05233,"LocationName":"Larvik","Confidence":60,"ClosestIndexPointId":4641462,"ClosestIndexPointTitle":"Larvik: NM i havfiske","FirstTimeTransmitted":"1977-05-28T00:00:00"},{"TimeTagId":{"ProgrammeId":"FREP43007677","Time":"00:17:03"},"Thumbnail":"https://nrkpssniktittprodwe.blob.core.windows.net/preview/FREP43007677_00_17_05.jpg","Lng":16.80307,"Lat":69.08059,"LocationName":"Senja","Confidence":60,"ClosestIndexPointId":4641278,"ClosestIndexPointTitle":"Ytre Senja: Legemangel i Nord-Norge","FirstTimeTransmitted":"1977-05-28T00:00:00"},{"TimeTagId":{"ProgrammeId":"FREP43007777","Time":"00:16:45"},"Thumbnail":"https://nrkpssniktittprodwe.blob.core.windows.net/preview/FREP437777-AR-199051353_00_16_47.jpg","Lng":29.7486,"Lat":70.07413,"LocationName":"Vadsø","Confidence":60,"ClosestIndexPointId":4641791,"ClosestIndexPointTitle":"Vadsø: Teaterstykke om Hurtigruta","FirstTimeTransmitted":"1977-06-11T00:00:00"},{"TimeTagId":{"ProgrammeId":"FREP43007777","Time":"00:12:33"},"Thumbnail":"https://nrkpssniktittprodwe.blob.core.windows.net/preview/FREP437777-AR-199051353_00_12_35.jpg","Lng":6.55185,"Lat":58.45674,"LocationName":"Moi","Confidence":60,"ClosestIndexPointId":4641789,"ClosestIndexPointTitle":"Moi: Sauebjellefabrikk","FirstTimeTransmitted":"1977-06-11T00:00:00"},{"TimeTagId":{"ProgrammeId":"FREP43007777","Time":"00:26:43"},"Thumbnail":"https://nrkpssniktittprodwe.blob.core.windows.net/preview/FREP437777-AR-199051353_00_26_45.jpg","Lng":5.5002,"Lat":60.00579,"LocationName":"Tysnes","Confidence":60,"ClosestIndexPointId":4641815,"ClosestIndexPointTitle":"Tysnes: \"Eg heiter Anne Knutsdotter\"","FirstTimeTransmitted":"1977-06-11T00:00:00"},{"TimeTagId":{"ProgrammeId":"FREP43007777","Time":"00:07:07"},"Thumbnail":"https://nrkpssniktittprodwe.blob.core.windows.net/preview/FREP437777-AR-199051353_00_07_09.jpg","Lng":11.0783,"Lat":60.79451,"LocationName":"Hamar","Confidence":60,"ClosestIndexPointId":4641558,"ClosestIndexPointTitle":"Hamar: Jernbanedagene","FirstTimeTransmitted":"1977-06-11T00:00:00"},{"TimeTagId":{"ProgrammeId":"FREP43007777","Time":"00:21:57"},"Thumbnail":"https://nrkpssniktittprodwe.blob.core.windows.net/preview/FREP437777-AR-199051353_00_21_59.jpg","Lng":20.528,"Lat":69.4873,"LocationName":"Manndalen","Confidence":60,"ClosestIndexPointId":4641801,"ClosestIndexPointTitle":"Manndalen: Grenevev","FirstTimeTransmitted":"1977-06-11T00:00:00"},{"TimeTagId":{"ProgrammeId":"FREP43007777","Time":"00:01:47"},"Thumbnail":"https://nrkpssniktittprodwe.blob.core.windows.net/preview/FREP437777-AR-199051353_00_01_49.jpg","Lng":5.63398,"Lat":62.34194,"LocationName":"Fosnavåg","Confidence":60,"ClosestIndexPointId":4641537,"ClosestIndexPointTitle":"Fosnavåg: Herøymessa 1977","FirstTimeTransmitted":"1977-06-11T00:00:00"},{"TimeTagId":{"ProgrammeId":"FREP43007877","Time":"00:28:03"},"Thumbnail":"https://nrkpssniktittprodwe.blob.core.windows.net/preview/FREP43007877_00_28_05.jpg","Lng":8.89275,"Lat":61.12603,"LocationName":"Slidrefjorden","Confidence":60,"ClosestIndexPointId":4827806,"ClosestIndexPointTitle":"Valdres: Utgraving av gamle kirkeruiner","FirstTimeTransmitted":"1977-06-25T00:00:00"},{"TimeTagId":{"ProgrammeId":"FREP43007877","Time":"00:23:22"},"Thumbnail":"https://nrkpssniktittprodwe.blob.core.windows.net/preview/FREP43007877_00_23_24.jpg","Lng":10.39056,"Lat":63.3614,"LocationName":"Heimdalsbyen","Confidence":60,"ClosestIndexPointId":4827805,"ClosestIndexPointTitle":"Trondheim: Familiedugnad i nybyggerfelt","FirstTimeTransmitted":"1977-06-25T00:00:00"},{"TimeTagId":{"ProgrammeId":"FREP43007877","Time":"00:17:23"},"Thumbnail":"https://nrkpssniktittprodwe.blob.core.windows.net/preview/FREP43007877_00_17_25.jpg","Lng":6.57911,"Lat":58.10313,"LocationName":"Borhaug","Confidence":60,"ClosestIndexPointId":4827804,"ClosestIndexPointTitle":"Sørlandet: Listerskøyta","FirstTimeTransmitted":"1977-06-25T00:00:00"},{"TimeTagId":{"ProgrammeId":"FREP43007877","Time":"00:11:31"},"Thumbnail":"https://nrkpssniktittprodwe.blob.core.windows.net/preview/FREP43007877_00_11_33.jpg","Lng":14.38305,"Lat":67.28324,"LocationName":"Bodø","Confidence":60,"ClosestIndexPointId":4827803,"ClosestIndexPointTitle":"Bodø: Fallskjermhopping","FirstTimeTransmitted":"1977-06-25T00:00:00"},{"TimeTagId":{"ProgrammeId":"FREP43007877","Time":"00:00:52"},"Thumbnail":"https://nrkpssniktittprodwe.blob.core.windows.net/preview/FREP43007877_00_00_54.jpg","Lng":10.7336,"Lat":59.9119,"LocationName":"Oslo","Confidence":60,"ClosestIndexPointId":4827801,"ClosestIndexPointTitle":"Oslo: Sommer i hovedstaden","FirstTimeTransmitted":"1977-06-25T00:00:00"},{"TimeTagId":{"ProgrammeId":"FREP43007977","Time":"00:30:02"},"Thumbnail":"https://nrkpssniktittprodwe.blob.core.windows.net/preview/FREP43007977_00_30_04.jpg","Lng":17.5,"Lat":63.0,"LocationName":"Västernorrland","Confidence":60,"ClosestIndexPointId":3989325,"ClosestIndexPointTitle":"Ånge: Pensjonister bytter hus i ferien","FirstTimeTransmitted":"1977-07-09T00:00:00"},{"TimeTagId":{"ProgrammeId":"FREP43007977","Time":"00:24:47"},"Thumbnail":"https://nrkpssniktittprodwe.blob.core.windows.net/preview/FREP43007977_00_24_49.jpg","Lng":6.86697,"Lat":62.085595,"LocationName":"Hellesylt","Confidence":100,"ClosestIndexPointId":3989324,"ClosestIndexPointTitle":"Hellesylt: Treskjærer Oddvin Parr","FirstTimeTransmitted":"1977-07-09T00:00:00"},{"TimeTagId":{"ProgrammeId":"FREP43007977","Time":"00:20:51"},"Thumbnail":"https://nrkpssniktittprodwe.blob.core.windows.net/preview/FREP43007977_00_20_53.jpg","Lng":10.75072,"Lat":60.38049,"LocationName":"Norge","Confidence":60,"ClosestIndexPointId":3989323,"ClosestIndexPointTitle":"Njallaav'zi: Uranboring foreslått i naturreservat","FirstTimeTransmitted":"1977-07-09T00:00:00"},{"TimeTagId":{"ProgrammeId":"FREP43007977","Time":"00:13:52"},"Thumbnail":"https://nrkpssniktittprodwe.blob.core.windows.net/preview/FREP43007977_00_13_54.jpg","Lng":9.649386,"Lat":59.672822,"LocationName":"Kongsberg","Confidence":100,"ClosestIndexPointId":3989322,"ClosestIndexPointTitle":"Kongsberg: Numedalsbanen","FirstTimeTransmitted":"1977-07-09T00:00:00"},{"TimeTagId":{"ProgrammeId":"FREP43007977","Time":"00:08:45"},"Thumbnail":"https://nrkpssniktittprodwe.blob.core.windows.net/preview/FREP43007977_00_08_47.jpg","Lng":8.38407,"Lat":58.214403,"LocationName":"Justøy","Confidence":100,"ClosestIndexPointId":3989321,"ClosestIndexPointTitle":"Justøy: bibelcamping","FirstTimeTransmitted":"1977-07-09T00:00:00"},{"TimeTagId":{"ProgrammeId":"FREP43007977","Time":"00:02:46"},"Thumbnail":"https://nrkpssniktittprodwe.blob.core.windows.net/preview/FREP43007977_00_02_48.jpg","Lng":12.23897,"Lat":62.16843,"LocationName":"Sylen","Confidence":60,"ClosestIndexPointId":3989320,"ClosestIndexPointTitle":"Sylen: avsides gård i Femundsmarka","FirstTimeTransmitted":"1977-07-09T00:00:00"},{"TimeTagId":{"ProgrammeId":"FREP43008077","Time":"00:26:11"},"Thumbnail":"https://nrkpssniktittprodwe.blob.core.windows.net/preview/FREP43008077AA_00_26_13.jpg","Lng":22.1644,"Lat":70.49276,"LocationName":"Sørøya","Confidence":60,"ClosestIndexPointId":4642315,"ClosestIndexPointTitle":"Breivik: Nytt liv i fraflyttingssamfunn på Sørøy","FirstTimeTransmitted":"1977-07-23T00:00:00"},{"TimeTagId":{"ProgrammeId":"FREP43008077","Time":"00:21:25"},"Thumbnail":"https://nrkpssniktittprodwe.blob.core.windows.net/preview/FREP43008077AA_00_21_27.jpg","Lng":8.57205,"Lat":59.56071,"LocationName":"Flatdal","Confidence":60,"ClosestIndexPointId":4642295,"ClosestIndexPointTitle":"Seljord: Sparkstøttinger til sommerbruk","FirstTimeTransmitted":"1977-07-23T00:00:00"},{"TimeTagId":{"ProgrammeId":"FREP43008077","Time":"00:16:22"},"Thumbnail":"https://nrkpssniktittprodwe.blob.core.windows.net/preview/FREP43008077AA_00_16_24.jpg","Lng":9.6333,"Lat":62.7,"LocationName":"Nerskogen","Confidence":60,"ClosestIndexPointId":4642275,"ClosestIndexPointTitle":"Nerskogen: Nydyrking av jord","FirstTimeTransmitted":"1977-07-23T00:00:00"},{"TimeTagId":{"ProgrammeId":"FREP43008077","Time":"00:11:00"},"Thumbnail":"https://nrkpssniktittprodwe.blob.core.windows.net/preview/FREP43008077AA_00_11_02.jpg","Lng":10.75072,"Lat":60.38049,"LocationName":"Norge","Confidence":60,"ClosestIndexPointId":4642253,"ClosestIndexPointTitle":"Horten: Blåskjelldyrking blant blåkrager","FirstTimeTransmitted":"1977-07-23T00:00:00"},{"TimeTagId":{"ProgrammeId":"FREP43008077","Time":"00:02:51"},"Thumbnail":"https://nrkpssniktittprodwe.blob.core.windows.net/preview/FREP43008077AA_00_02_53.jpg","Lng":5.9344,"Lat":59.66472,"LocationName":"Etne","Confidence":60,"ClosestIndexPointId":4642252,"ClosestIndexPointTitle":"Etne: Ljåsmiing og ljåbruk","FirstTimeTransmitted":"1977-07-23T00:00:00"},{"TimeTagId":{"ProgrammeId":"FREP43008177","Time":"00:29:20"},"Thumbnail":"https://nrkpssniktittprodwe.blob.core.windows.net/preview/FREP43008177_00_29_22.jpg","Lng":11.99916,"Lat":60.19117,"LocationName":"Kongsvinger","Confidence":60,"ClosestIndexPointId":3755470,"ClosestIndexPointTitle":"Kongsvinger: Krepsesesongen tar til","FirstTimeTransmitted":"1977-08-06T00:00:00"},{"TimeTagId":{"ProgrammeId":"FREP43008177","Time":"00:25:03"},"Thumbnail":"https://nrkpssniktittprodwe.blob.core.windows.net/preview/FREP43008177_00_25_05.jpg","Lng":5.731752,"Lat":58.970046,"LocationName":"Stavanger","Confidence":100,"ClosestIndexPointId":3755469,"ClosestIndexPointTitle":"Stavanger: Torgsteming","FirstTimeTransmitted":"1977-08-06T00:00:00"},{"TimeTagId":{"ProgrammeId":"FREP43008177","Time":"00:18:20"},"Thumbnail":"https://nrkpssniktittprodwe.blob.core.windows.net/preview/FREP43008177_00_18_22.jpg","Lng":6.93116,"Lat":62.31132,"LocationName":"Stranda","Confidence":100,"ClosestIndexPointId":3755468,"ClosestIndexPointTitle":"Stranda: Veteranbiler på tur til Briksdalsbreen","FirstTimeTransmitted":"1977-08-06T00:00:00"},{"TimeTagId":{"ProgrammeId":"FREP43008177","Time":"00:13:28"},"Thumbnail":"https://nrkpssniktittprodwe.blob.core.windows.net/preview/FREP43008177_00_13_30.jpg","Lng":11.3435,"Lat":59.42822,"LocationName":"Rakkestad","Confidence":60,"ClosestIndexPointId":3755467,"ClosestIndexPointTitle":"Rakkestad: Veving og keramikk","FirstTimeTransmitted":"1977-08-06T00:00:00"},{"TimeTagId":{"ProgrammeId":"FREP43008177","Time":"00:08:48"},"Thumbnail":"https://nrkpssniktittprodwe.blob.core.windows.net/preview/FREP43008177_00_08_50.jpg","Lng":10.74137,"Lat":63.58771,"LocationName":"Frosta","Confidence":60,"ClosestIndexPointId":3755466,"ClosestIndexPointTitle":"Frosta: Bygdeauksjon","FirstTimeTransmitted":"1977-08-06T00:00:00"},{"TimeTagId":{"ProgrammeId":"FREP43008177","Time":"00:03:01"},"Thumbnail":"https://nrkpssniktittprodwe.blob.core.windows.net/preview/FREP43008177_00_03_03.jpg","Lng":8.143294,"Lat":58.183194,"LocationName":"Kristiansand","Confidence":100,"ClosestIndexPointId":3755465,"ClosestIndexPointTitle":"Kristiansand: Tropehest i Dyreparken","FirstTimeTransmitted":"1977-08-06T00:00:00"},{"TimeTagId":{"ProgrammeId":"FREP43008277","Time":"00:11:52"},"Thumbnail":"https://nrkpssniktittprodwe.blob.core.windows.net/preview/FREP43008277AA_00_11_54.jpg","Lng":10.73761,"Lat":59.89468,"LocationName":"Hovedøya","Confidence":100,"ClosestIndexPointId":4642387,"ClosestIndexPointTitle":"Oslo: Hovedøya - folkepark for Oslo?","FirstTimeTransmitted":"1977-08-20T00:00:00"},{"TimeTagId":{"ProgrammeId":"FREP43008277","Time":"00:28:15"},"Thumbnail":"https://nrkpssniktittprodwe.blob.core.windows.net/preview/FREP43008277AA_00_28_17.jpg","Lng":8.29225,"Lat":58.189,"LocationName":"Kjøpmannsvik","Confidence":60,"ClosestIndexPointId":4642390,"ClosestIndexPointTitle":"Kjøpmannsvik: 92-årig kjøpmann i fullt arbeid","FirstTimeTransmitted":"1977-08-20T00:00:00"},{"TimeTagId":{"ProgrammeId":"FREP43008277","Time":"00:22:01"},"Thumbnail":"https://nrkpssniktittprodwe.blob.core.windows.net/preview/FREP43008277AA_00_22_03.jpg","Lng":5.07947,"Lat":60.23662,"LocationName":"Sotra","Confidence":60,"ClosestIndexPointId":4642389,"ClosestIndexPointTitle":"Sotra: På vei inn i en ny tid","FirstTimeTransmitted":"1977-08-20T00:00:00"},{"TimeTagId":{"ProgrammeId":"FREP43008277","Time":"00:17:03"},"Thumbnail":"https://nrkpssniktittprodwe.blob.core.windows.net/preview/FREP43008277AA_00_17_05.jpg","Lng":5.72856,"Lat":58.9694,"LocationName":"Stavanger","Confidence":60,"ClosestIndexPointId":4642388,"ClosestIndexPointTitle":"Stavanger: Bybrua - nytt landemerke","FirstTimeTransmitted":"1977-08-20T00:00:00"},{"TimeTagId":{"ProgrammeId":"FREP43008277","Time":"00:07:22"},"Thumbnail":"https://nrkpssniktittprodwe.blob.core.windows.net/preview/FREP43008277AA_00_07_24.jpg","Lng":18.84218,"Lat":69.93958,"LocationName":"Langnes","Confidence":60,"ClosestIndexPointId":4642357,"ClosestIndexPointTitle":"Tromsø: Brilleproduksjon","FirstTimeTransmitted":"1977-08-20T00:00:00"},{"TimeTagId":{"ProgrammeId":"FREP43008277","Time":"00:02:46"},"Thumbnail":"https://nrkpssniktittprodwe.blob.core.windows.net/preview/FREP43008277AA_00_02_48.jpg","Lng":9.53465,"Lat":59.39995,"LocationName":"Luksefjell","Confidence":60,"ClosestIndexPointId":4642356,"ClosestIndexPointTitle":"Skien: Blåbærplukking","FirstTimeTransmitted":"1977-08-20T00:00:00"},{"TimeTagId":{"ProgrammeId":"FREP45003177","Time":"00:17:49"},"Thumbnail":"https://nrkpssniktittprodwe.blob.core.windows.net/preview/FREP45003177AA_00_17_51.jpg","Lng":7.29657,"Lat":63.00482,"LocationName":"Vevang","Confidence":60,"ClosestIndexPointId":4647256,"ClosestIndexPointTitle":"Vevang: Impulsbåten i Møre og Romsdal","FirstTimeTransmitted":"1977-09-03T00:00:00"},{"TimeTagId":{"ProgrammeId":"FREP45003177","Time":"00:22:55"},"Thumbnail":"https://nrkpssniktittprodwe.blob.core.windows.net/preview/FREP45003177AA_00_22_57.jpg","Lng":24.97178,"Lat":70.05133,"LocationName":"Lakselv","Confidence":60,"ClosestIndexPointId":4647271,"ClosestIndexPointTitle":"Lakselv: Flyoppsyn på Finnmarksvidda","FirstTimeTransmitted":"1977-09-03T00:00:00"},{"TimeTagId":{"ProgrammeId":"FREP45003177","Time":"00:02:28"},"Thumbnail":"https://nrkpssniktittprodwe.blob.core.windows.net/preview/FREP45003177AA_00_02_30.jpg","Lng":9.95934,"Lat":63.58314,"LocationName":"Rissa","Confidence":60,"ClosestIndexPointId":4647191,"ClosestIndexPointTitle":"Rissa: Mangt er mat","FirstTimeTransmitted":"1977-09-03T00:00:00"},{"TimeTagId":{"ProgrammeId":"FREP45003177","Time":"00:11:46"},"Thumbnail":"https://nrkpssniktittprodwe.blob.core.windows.net/preview/FREP45003177AA_00_11_48.jpg","Lng":14.7931,"Lat":66.6546,"LocationName":"Saltfjellet-Svartisen nasjonalpark","Confidence":60,"ClosestIndexPointId":4647220,"ClosestIndexPointTitle":"Saltfjellet - nasjonalpark eller vannkraft?","FirstTimeTransmitted":"1977-09-03T00:00:00"},{"TimeTagId":{"ProgrammeId":"FREP45003177","Time":"00:05:57"},"Thumbnail":"https://nrkpssniktittprodwe.blob.core.windows.net/preview/FREP45003177AA_00_05_59.jpg","Lng":10.31515,"Lat":59.48975,"LocationName":"Holmestrand","Confidence":60,"ClosestIndexPointId":4647205,"ClosestIndexPointTitle":"Holmestrand: Båter i opplag","FirstTimeTransmitted":"1977-09-03T00:00:00"},{"TimeTagId":{"ProgrammeId":"FREP45003177","Time":"00:27:22"},"Thumbnail":"https://nrkpssniktittprodwe.blob.core.windows.net/preview/FREP45003177AA_00_27_24.jpg","Lng":5.40545,"Lat":59.06471,"LocationName":"Kvitsøy","Confidence":60,"ClosestIndexPointId":4647273,"ClosestIndexPointTitle":"Kvitsøy: Amatørrevy","FirstTimeTransmitted":"1977-09-03T00:00:00"},{"TimeTagId":{"ProgrammeId":"FREP45003277","Time":"00:26:32"},"Thumbnail":"https://nrkpssniktittprodwe.blob.core.windows.net/preview/FREP453277-AR-199316520_00_26_34.jpg","Lng":5.13136,"Lat":61.49363,"LocationName":"Svanøy","Confidence":60,"ClosestIndexPointId":4647332,"ClosestIndexPointTitle":"Svanøy: Plantefargingskurs","FirstTimeTransmitted":"1977-09-17T00:00:00"},{"TimeTagId":{"ProgrammeId":"FREP45003277","Time":"00:21:46"},"Thumbnail":"https://nrkpssniktittprodwe.blob.core.windows.net/preview/FREP453277-AR-199316520_00_21_48.jpg","Lng":10.25647,"Lat":60.16804,"LocationName":"Hønefoss","Confidence":60,"ClosestIndexPointId":4647296,"ClosestIndexPointTitle":"Hønefoss: Veiprosjekt på 700 mål erstatningsjord","FirstTimeTransmitted":"1977-09-17T00:00:00"},{"TimeTagId":{"ProgrammeId":"FREP45003277","Time":"00:08:13"},"Thumbnail":"https://nrkpssniktittprodwe.blob.core.windows.net/preview/FREP453277-AR-199316520_00_08_15.jpg","Lng":10.75072,"Lat":60.38049,"LocationName":"Norge","Confidence":60,"ClosestIndexPointId":4647289,"ClosestIndexPointTitle":"Finnskogen: Lindyrking og veving","FirstTimeTransmitted":"1977-09-17T00:00:00"},{"TimeTagId":{"ProgrammeId":"FREP45003277","Time":"00:02:16"},"Thumbnail":"https://nrkpssniktittprodwe.blob.core.windows.net/preview/FREP453277-AR-199316520_00_02_18.jpg","Lng":10.73994,"Lat":59.91295,"LocationName":"Stortinget","Confidence":60,"ClosestIndexPointId":4647287,"ClosestIndexPointTitle":"Oslo: Avskjed med Stortinget","FirstTimeTransmitted":"1977-09-17T00:00:00"},{"TimeTagId":{"ProgrammeId":"FREP45003277","Time":"00:14:25"},"Thumbnail":"https://nrkpssniktittprodwe.blob.core.windows.net/preview/FREP453277-AR-199316520_00_14_27.jpg","Lng":7.15913,"Lat":62.73752,"LocationName":"Molde","Confidence":60,"ClosestIndexPointId":4647293,"ClosestIndexPointTitle":"Molde: Aktivt forbruker- og heimstellskontor","FirstTimeTransmitted":"1977-09-17T00:00:00"},{"TimeTagId":{"ProgrammeId":"FREP45003377","Time":"00:00:57"},"Thumbnail":"https://nrkpssniktittprodwe.blob.core.windows.net/preview/FREP45003377AA_00_00_59.jpg","Lng":10.7336,"Lat":59.9119,"LocationName":"Oslo","Confidence":60,"ClosestIndexPointId":4647379,"ClosestIndexPointTitle":"Oslo: Harald Heide Steen jr som representant for \"Elgforbundet\"","FirstTimeTransmitted":"1977-10-01T00:00:00"},{"TimeTagId":{"ProgrammeId":"FREP45003377","Time":"00:15:34"},"Thumbnail":"https://nrkpssniktittprodwe.blob.core.windows.net/preview/FREP45003377AA_00_15_36.jpg","Lng":5.32802,"Lat":60.392,"LocationName":"Bergen","Confidence":60,"ClosestIndexPointId":4647423,"ClosestIndexPointTitle":"Bergen: Pasienter på venteliste","FirstTimeTransmitted":"1977-10-01T00:00:00"},{"TimeTagId":{"ProgrammeId":"FREP45003377","Time":"00:10:09"},"Thumbnail":"https://nrkpssniktittprodwe.blob.core.windows.net/preview/FREP45003377AA_00_10_11.jpg","Lng":7.99686,"Lat":58.14642,"LocationName":"Kristiansand","Confidence":60,"ClosestIndexPointId":4647419,"ClosestIndexPointTitle":"Kristiansand: Sørlandet RC Modellflyklubb","FirstTimeTransmitted":"1977-10-01T00:00:00"},{"TimeTagId":{"ProgrammeId":"FREP45003377","Time":"00:02:53"},"Thumbnail":"https://nrkpssniktittprodwe.blob.core.windows.net/preview/FREP45003377AA_00_02_55.jpg","Lng":15.3458,"Lat":66.58394,"LocationName":"Saltfjellet","Confidence":60,"ClosestIndexPointId":4647380,"ClosestIndexPointTitle":"Saltfjellet: Reinsanking","FirstTimeTransmitted":"1977-10-01T00:00:00"},{"TimeTagId":{"ProgrammeId":"FREP45003377","Time":"00:21:15"},"Thumbnail":"https://nrkpssniktittprodwe.blob.core.windows.net/preview/FREP45003377AA_00_21_17.jpg","Lng":10.73314,"Lat":59.91139,"LocationName":"Rådhusplassen","Confidence":60,"ClosestIndexPointId":4647454,"ClosestIndexPointTitle":"Oslo: Bilktrafikk og togtrafikk i Oslo havn","FirstTimeTransmitted":"1977-10-01T00:00:00"},{"TimeTagId":{"ProgrammeId":"FREP45003377","Time":"00:26:11"},"Thumbnail":"https://nrkpssniktittprodwe.blob.core.windows.net/preview/FREP45003377AA_00_26_13.jpg","Lng":8.77783,"Lat":60.66699,"LocationName":"Hallingdal","Confidence":60,"ClosestIndexPointId":4647476,"ClosestIndexPointTitle":"Hallingdal: Uvanlig sykkelsport","FirstTimeTransmitted":"1977-10-01T00:00:00"},{"TimeTagId":{"ProgrammeId":"FREP45003477","Time":"00:11:51"},"Thumbnail":"https://nrkpssniktittprodwe.blob.core.windows.net/preview/FREP45003477AA_00_11_53.jpg","Lng":14.14433,"Lat":66.30994,"LocationName":"Mo","Confidence":60,"ClosestIndexPointId":4647647,"ClosestIndexPointTitle":"Mo i Rana: Rana Blads gamle avispresse til museum","FirstTimeTransmitted":"1977-10-15T00:00:00"},{"TimeTagId":{"ProgrammeId":"FREP45003477","Time":"00:03:57"},"Thumbnail":"https://nrkpssniktittprodwe.blob.core.windows.net/preview/FREP45003477AA_00_03_59.jpg","Lng":29.7486,"Lat":70.07413,"LocationName":"Vadsø","Confidence":60,"ClosestIndexPointId":4647617,"ClosestIndexPointTitle":"Vadsø: Reketråleren \"Bølgen\"","FirstTimeTransmitted":"1977-10-15T00:00:00"},{"TimeTagId":{"ProgrammeId":"FREP45003477","Time":"00:01:01"},"Thumbnail":"https://nrkpssniktittprodwe.blob.core.windows.net/preview/FREP45003477AA_00_01_03.jpg","Lng":10.35193,"Lat":60.6987,"LocationName":"Hov","Confidence":60,"ClosestIndexPointId":4647615,"ClosestIndexPointTitle":"Hov i Land: Høstvise","FirstTimeTransmitted":"1977-10-15T00:00:00"},{"TimeTagId":{"ProgrammeId":"FREP45003477","Time":"00:24:15"},"Thumbnail":"https://nrkpssniktittprodwe.blob.core.windows.net/preview/FREP45003477AA_00_24_17.jpg","Lng":10.28497,"Lat":61.2158,"LocationName":"Follebu","Confidence":60,"ClosestIndexPointId":4647650,"ClosestIndexPointTitle":"Gausdal: Riving eller freding av Kornhaug?","FirstTimeTransmitted":"1977-10-15T00:00:00"},{"TimeTagId":{"ProgrammeId":"FREP45003477","Time":"00:30:31"},"Thumbnail":"https://nrkpssniktittprodwe.blob.core.windows.net/preview/FREP45003477AA_00_30_33.jpg","Lng":7.99686,"Lat":58.14642,"LocationName":"Kristiansand","Confidence":60,"ClosestIndexPointId":4647651,"ClosestIndexPointTitle":"Kristiansand: Brukskunstsenter","FirstTimeTransmitted":"1977-10-15T00:00:00"},{"TimeTagId":{"ProgrammeId":"FREP45003477","Time":"00:17:16"},"Thumbnail":"https://nrkpssniktittprodwe.blob.core.windows.net/preview/FREP45003477AA_00_17_18.jpg","Lng":6.90393,"Lat":63.04693,"LocationName":"Hustadvika","Confidence":60,"ClosestIndexPointId":4647649,"ClosestIndexPointTitle":"Hustadvika: Tang og tare","FirstTimeTransmitted":"1977-10-15T00:00:00"},{"TimeTagId":{"ProgrammeId":"FREP45003577","Time":"00:09:31"},"Thumbnail":"https://nrkpssniktittprodwe.blob.core.windows.net/preview/FREP45003577AA_00_09_33.jpg","Lng":9.76896,"Lat":59.88921,"LocationName":"Bingen kapell","Confidence":60,"ClosestIndexPointId":4652015,"ClosestIndexPointTitle":"Bingen: Nytt klubbhus","FirstTimeTransmitted":"1977-10-29T00:00:00"},{"TimeTagId":{"ProgrammeId":"FREP45003577","Time":"00:02:24"},"Thumbnail":"https://nrkpssniktittprodwe.blob.core.windows.net/preview/FREP45003577AA_00_02_26.jpg","Lng":10.75072,"Lat":60.38049,"LocationName":"Norge","Confidence":60,"ClosestIndexPointId":4652005,"ClosestIndexPointTitle":"Lena: Totenklokker","FirstTimeTransmitted":"1977-10-29T00:00:00"},{"TimeTagId":{"ProgrammeId":"FREP45003577","Time":"00:00:53"},"Thumbnail":"https://nrkpssniktittprodwe.blob.core.windows.net/preview/FREP45003577AA_00_00_55.jpg","Lng":10.7336,"Lat":59.9119,"LocationName":"Oslo","Confidence":60,"ClosestIndexPointId":4652004,"ClosestIndexPointTitle":"Oslo: Forkjølelse","FirstTimeTransmitted":"1977-10-29T00:00:00"},{"TimeTagId":{"ProgrammeId":"FREP45003577","Time":"00:20:49"},"Thumbnail":"https://nrkpssniktittprodwe.blob.core.windows.net/preview/FREP45003577AA_00_20_51.jpg","Lng":10.39687,"Lat":63.42811,"LocationName":"Trondheim","Confidence":60,"ClosestIndexPointId":4657512,"ClosestIndexPointTitle":"Trondheim: Nye studentboliger","FirstTimeTransmitted":"1977-10-29T00:00:00"},{"TimeTagId":{"ProgrammeId":"FREP45003577","Time":"00:25:42"},"Thumbnail":"https://nrkpssniktittprodwe.blob.core.windows.net/preview/FREP45003577AA_00_25_44.jpg","Lng":5.29606,"Lat":61.17113,"LocationName":"Hyllestad","Confidence":60,"ClosestIndexPointId":4657515,"ClosestIndexPointTitle":"Hyllestad i Sogn","FirstTimeTransmitted":"1977-10-29T00:00:00"},{"TimeTagId":{"ProgrammeId":"FREP45003577","Time":"00:14:00"},"Thumbnail":"https://nrkpssniktittprodwe.blob.core.windows.net/preview/FREP45003577AA_00_14_02.jpg","Lng":29.98718,"Lat":69.66745,"LocationName":"Bjørnevatn","Confidence":60,"ClosestIndexPointId":4657495,"ClosestIndexPointTitle":"Bjørnevatn: Malmtog","FirstTimeTransmitted":"1977-10-29T00:00:00"},{"TimeTagId":{"ProgrammeId":"FREP45003677","Time":"00:26:28"},"Thumbnail":"https://nrkpssniktittprodwe.blob.core.windows.net/preview/FREP45003677AA_00_26_30.jpg","Lng":9.37428,"Lat":63.81041,"LocationName":"Tarva","Confidence":60,"ClosestIndexPointId":4658075,"ClosestIndexPointTitle":"Tarva: Steinaldersau","FirstTimeTransmitted":"1977-11-12T00:00:00"},{"TimeTagId":{"ProgrammeId":"FREP45003677","Time":"00:20:52"},"Thumbnail":"https://nrkpssniktittprodwe.blob.core.windows.net/preview/FREP45003677AA_00_20_54.jpg","Lng":7.79231,"Lat":62.57777,"LocationName":"Isfjorden","Confidence":60,"ClosestIndexPointId":4658056,"ClosestIndexPointTitle":"Isfjorden: Maling av korn","FirstTimeTransmitted":"1977-11-12T00:00:00"},{"TimeTagId":{"ProgrammeId":"FREP45003677","Time":"00:15:21"},"Thumbnail":"https://nrkpssniktittprodwe.blob.core.windows.net/preview/FREP45003677AA_00_15_23.jpg","Lng":10.52452,"Lat":59.89217,"LocationName":"Sandvika","Confidence":60,"ClosestIndexPointId":4658016,"ClosestIndexPointTitle":"Sandvika: Flytting av Løkke bro","FirstTimeTransmitted":"1977-11-12T00:00:00"},{"TimeTagId":{"ProgrammeId":"FREP45003677","Time":"00:08:29"},"Thumbnail":"https://nrkpssniktittprodwe.blob.core.windows.net/preview/FREP45003677AA_00_08_31.jpg","Lng":30.83024,"Lat":69.77524,"LocationName":"Grense Jakobselv","Confidence":60,"ClosestIndexPointId":4657976,"ClosestIndexPointTitle":"Grense Jakobselv: Fraflytting","FirstTimeTransmitted":"1977-11-12T00:00:00"},{"TimeTagId":{"ProgrammeId":"FREP45003677","Time":"00:06:25"},"Thumbnail":"https://nrkpssniktittprodwe.blob.core.windows.net/preview/FREP45003677AA_00_06_27.jpg","Lng":10.74609,"Lat":59.91273,"LocationName":"Oslo","Confidence":60,"ClosestIndexPointId":4657837,"ClosestIndexPointTitle":"Oslo: Om været","FirstTimeTransmitted":"1977-11-12T00:00:00"},{"TimeTagId":{"ProgrammeId":"FREP45003677","Time":"00:00:54"},"Thumbnail":"https://nrkpssniktittprodwe.blob.core.windows.net/preview/FREP45003677AA_00_00_56.jpg","Lng":5.55577,"Lat":58.81419,"LocationName":"Sele","Confidence":60,"ClosestIndexPointId":4657819,"ClosestIndexPointTitle":"Sele på Jæren: Vindharpe","FirstTimeTransmitted":"1977-11-12T00:00:00"},{"TimeTagId":{"ProgrammeId":"FREP45003777","Time":"00:28:22"},"Thumbnail":"https://nrkpssniktittprodwe.blob.core.windows.net/preview/FREP45003777AA_00_28_24.jpg","Lng":10.3689,"Lat":60.20587,"LocationName":"Åsbygda","Confidence":60,"ClosestIndexPointId":3968119,"ClosestIndexPointTitle":"Åsbygda: UFO over Åsbygda?","FirstTimeTransmitted":"1977-11-26T00:00:00"},{"TimeTagId":{"ProgrammeId":"FREP45003777","Time":"00:23:10"},"Thumbnail":"https://nrkpssniktittprodwe.blob.core.windows.net/preview/FREP45003777AA_00_23_12.jpg","Lng":6.44156,"Lat":62.76975,"LocationName":"Harøya","Confidence":60,"ClosestIndexPointId":3968118,"ClosestIndexPointTitle":"Harøya: Vevstuekollektiv","FirstTimeTransmitted":"1977-11-26T00:00:00"},{"TimeTagId":{"ProgrammeId":"FREP45003777","Time":"00:18:10"},"Thumbnail":"https://nrkpssniktittprodwe.blob.core.windows.net/preview/FREP45003777AA_00_18_12.jpg","Lng":5.58687,"Lat":59.50272,"LocationName":"Skjold","Confidence":60,"ClosestIndexPointId":3968117,"ClosestIndexPointTitle":"Vaktelfarm i Skjold","FirstTimeTransmitted":"1977-11-26T00:00:00"},{"TimeTagId":{"ProgrammeId":"FREP45003777","Time":"00:14:54"},"Thumbnail":"https://nrkpssniktittprodwe.blob.core.windows.net/preview/FREP45003777AA_00_14_56.jpg","Lng":10.31515,"Lat":59.48975,"LocationName":"Holmestrand","Confidence":60,"ClosestIndexPointId":3968116,"ClosestIndexPointTitle":"Holmestrand: Portforbud for ungdom","FirstTimeTransmitted":"1977-11-26T00:00:00"},{"TimeTagId":{"ProgrammeId":"FREP45003777","Time":"00:09:12"},"Thumbnail":"https://nrkpssniktittprodwe.blob.core.windows.net/preview/FREP45003777AA_00_09_14.jpg","Lng":11.07694,"Lat":61.89003,"LocationName":"Rendalen","Confidence":60,"ClosestIndexPointId":3968115,"ClosestIndexPointTitle":"Rendalen: Avløserordning i eldreomsorgen","FirstTimeTransmitted":"1977-11-26T00:00:00"},{"TimeTagId":{"ProgrammeId":"FREP45003777","Time":"00:04:03"},"Thumbnail":"https://nrkpssniktittprodwe.blob.core.windows.net/preview/FREP45003777AA_00_04_05.jpg","Lng":9.069686,"Lat":59.44477,"LocationName":"Bø","Confidence":100,"ClosestIndexPointId":3968114,"ClosestIndexPointTitle":"Bø: Bygget sin egen stavkirke","FirstTimeTransmitted":"1977-11-26T00:00:00"},{"TimeTagId":{"ProgrammeId":"FREP45003777","Time":"00:01:33"},"Thumbnail":"https://nrkpssniktittprodwe.blob.core.windows.net/preview/FREP45003777AA_00_01_35.jpg","Lng":9.69073,"Lat":60.62246,"LocationName":"Hedalen","Confidence":60,"ClosestIndexPointId":3968113,"ClosestIndexPointTitle":"Hedalen: Sprintsau","FirstTimeTransmitted":"1977-11-26T00:00:00"},{"TimeTagId":{"ProgrammeId":"FREP45003877","Time":"00:11:53"},"Thumbnail":"https://nrkpssniktittprodwe.blob.core.windows.net/preview/FREP45003877AA_00_11_55.jpg","Lng":5.81547,"Lat":58.78663,"LocationName":"Figgjo","Confidence":60,"ClosestIndexPointId":4658815,"ClosestIndexPointTitle":"Figgjo: Rasjonalisering hos produsent av sportsklær","FirstTimeTransmitted":"1977-12-10T00:00:00"},{"TimeTagId":{"ProgrammeId":"FREP45003877","Time":"00:05:22"},"Thumbnail":"https://nrkpssniktittprodwe.blob.core.windows.net/preview/FREP45003877AA_00_05_24.jpg","Lng":7.99686,"Lat":58.14642,"LocationName":"Kristiansand","Confidence":60,"ClosestIndexPointId":4658785,"ClosestIndexPointTitle":"Kristiansand: Det gamle kretsfengselet skal rives","FirstTimeTransmitted":"1977-12-10T00:00:00"},{"TimeTagId":{"ProgrammeId":"FREP45003877","Time":"00:27:15"},"Thumbnail":"https://nrkpssniktittprodwe.blob.core.windows.net/preview/FREP45003877AA_00_27_17.jpg","Lng":10.7336,"Lat":59.9119,"LocationName":"Oslo","Confidence":60,"ClosestIndexPointId":4658885,"ClosestIndexPointTitle":"Oslo: Slakting av gris til jul","FirstTimeTransmitted":"1977-12-10T00:00:00"},{"TimeTagId":{"ProgrammeId":"FREP45003877","Time":"00:21:26"},"Thumbnail":"https://nrkpssniktittprodwe.blob.core.windows.net/preview/FREP45003877AA_00_21_28.jpg","Lng":13.19135,"Lat":65.837,"LocationName":"Mosjøen","Confidence":60,"ClosestIndexPointId":4658878,"ClosestIndexPointTitle":"Mosjøen: Dårlig drikkevann","FirstTimeTransmitted":"1977-12-10T00:00:00"},{"TimeTagId":{"ProgrammeId":"FREP45003877","Time":"00:16:16"},"Thumbnail":"https://nrkpssniktittprodwe.blob.core.windows.net/preview/FREP45003877AA_00_16_18.jpg","Lng":10.75072,"Lat":60.38049,"LocationName":"Norge","Confidence":60,"ClosestIndexPointId":4658856,"ClosestIndexPointTitle":"Grunnfarnes: Møte med kjøpmann Alfred Pedersen","FirstTimeTransmitted":"1977-12-10T00:00:00"},{"TimeTagId":{"ProgrammeId":"FREP45003877","Time":"00:01:02"},"Thumbnail":"https://nrkpssniktittprodwe.blob.core.windows.net/preview/FREP45003877AA_00_01_04.jpg","Lng":15.64686,"Lat":78.22314,"LocationName":"Longyearbyen","Confidence":60,"ClosestIndexPointId":4658782,"ClosestIndexPointTitle":"Longyearbyen: Svalbardposten","FirstTimeTransmitted":"1977-12-10T00:00:00"},{"TimeTagId":{"ProgrammeId":"FREP45003977","Time":"00:43:48"},"Thumbnail":"https://nrkpssniktittprodwe.blob.core.windows.net/preview/FREP45003977AA_00_43_50.jpg","Lng":10.9503,"Lat":60.88216,"LocationName":"Ringsaker","Confidence":60,"ClosestIndexPointId":4683080,"ClosestIndexPointTitle":"Ringsaker: Julekveldsvisa av Alf Prøysen","FirstTimeTransmitted":"1977-12-24T00:00:00"},{"TimeTagId":{"ProgrammeId":"FREP45003977","Time":"00:38:33"},"Thumbnail":"https://nrkpssniktittprodwe.blob.core.windows.net/preview/FREP45003977AA_00_38_35.jpg","Lng":12.06681,"Lat":60.17902,"LocationName":"Ovra","Confidence":60,"ClosestIndexPointId":4683079,"ClosestIndexPointTitle":"Kongsvinger: Eventyrhus hvor det lages nisser","FirstTimeTransmitted":"1977-12-24T00:00:00"},{"TimeTagId":{"ProgrammeId":"FREP45003977","Time":"00:33:29"},"Thumbnail":"https://nrkpssniktittprodwe.blob.core.windows.net/preview/FREP45003977AA_00_33_31.jpg","Lng":6.63991,"Lat":62.78346,"LocationName":"Orta","Confidence":60,"ClosestIndexPointId":4683078,"ClosestIndexPointTitle":"Orten: Peggy 7 år","FirstTimeTransmitted":"1977-12-24T00:00:00"},{"TimeTagId":{"ProgrammeId":"FREP45003977","Time":"00:28:37"},"Thumbnail":"https://nrkpssniktittprodwe.blob.core.windows.net/preview/FREP45003977AA_00_28_39.jpg","Lng":11.1366,"Lat":60.74742,"LocationName":"Ottestad","Confidence":60,"ClosestIndexPointId":4683077,"ClosestIndexPointTitle":"Åkershagan: Juleforberedelser","FirstTimeTransmitted":"1977-12-24T00:00:00"},{"TimeTagId":{"ProgrammeId":"FREP45003977","Time":"00:23:14"},"Thumbnail":"https://nrkpssniktittprodwe.blob.core.windows.net/preview/FREP45003977AA_00_23_16.jpg","Lng":10.75072,"Lat":60.38049,"LocationName":"Norge","Confidence":60,"ClosestIndexPointId":4683076,"ClosestIndexPointTitle":"Eventyrneset: Fra gården til Øivind Dahl","FirstTimeTransmitted":"1977-12-24T00:00:00"},{"TimeTagId":{"ProgrammeId":"FREP45003977","Time":"00:21:29"},"Thumbnail":"https://nrkpssniktittprodwe.blob.core.windows.net/preview/FREP45003977AA_00_21_31.jpg","Lng":10.74609,"Lat":59.91273,"LocationName":"Oslo","Confidence":60,"ClosestIndexPointId":4683075,"ClosestIndexPointTitle":"Oslo: Pakking av Barnetimeboka 1977","FirstTimeTransmitted":"1977-12-24T00:00:00"},{"TimeTagId":{"ProgrammeId":"FREP45003977","Time":"00:18:19"},"Thumbnail":"https://nrkpssniktittprodwe.blob.core.windows.net/preview/FREP45003977AA_00_18_21.jpg","Lng":10.75072,"Lat":60.38049,"LocationName":"Norge","Confidence":60,"ClosestIndexPointId":4683074,"ClosestIndexPointTitle":"Loddefjord:","FirstTimeTransmitted":"1977-12-24T00:00:00"},{"TimeTagId":{"ProgrammeId":"FREP45003977","Time":"00:15:17"},"Thumbnail":"https://nrkpssniktittprodwe.blob.core.windows.net/preview/FREP45003977AA_00_15_19.jpg","Lng":10.93787,"Lat":59.21759,"LocationName":"Fredrikstad","Confidence":60,"ClosestIndexPointId":4683073,"ClosestIndexPointTitle":"Fredrikstad: Juleball for barn og foreldre","FirstTimeTransmitted":"1977-12-24T00:00:00"},{"TimeTagId":{"ProgrammeId":"FREP45003977","Time":"00:10:52"},"Thumbnail":"https://nrkpssniktittprodwe.blob.core.windows.net/preview/FREP45003977AA_00_10_54.jpg","Lng":11.19263,"Lat":63.70374,"LocationName":"Skogn","Confidence":60,"ClosestIndexPointId":4683072,"ClosestIndexPointTitle":"Skogn: Juleforberedelser i barnehage","FirstTimeTransmitted":"1977-12-24T00:00:00"},{"TimeTagId":{"ProgrammeId":"FREP45003977","Time":"00:05:58"},"Thumbnail":"https://nrkpssniktittprodwe.blob.core.windows.net/preview/FREP45003977AA_00_06_00.jpg","Lng":7.45015,"Lat":58.02633,"LocationName":"Mandal","Confidence":60,"ClosestIndexPointId":4683071,"ClosestIndexPointTitle":"Mandal: Jente skriver julebrev til faren","FirstTimeTransmitted":"1977-12-24T00:00:00"},{"TimeTagId":{"ProgrammeId":"FREP45003977","Time":"00:02:37"},"Thumbnail":"https://nrkpssniktittprodwe.blob.core.windows.net/preview/FREP45003977AA_00_02_39.jpg","Lng":10.75916,"Lat":59.93094,"LocationName":"Sagene skole","Confidence":60,"ClosestIndexPointId":4683070,"ClosestIndexPointTitle":"Oslo: Juleforberedelser med pakistanske barn","FirstTimeTransmitted":"1977-12-24T00:00:00"},{"TimeTagId":{"ProgrammeId":"FREP41008777","Time":"00:28:11"},"Thumbnail":"https://nrkpssniktittprodwe.blob.core.windows.net/preview/FREP41008777AA_00_28_13.jpg","Lng":10.94489,"Lat":60.88362,"LocationName":"Brumunddal","Confidence":60,"ClosestIndexPointId":4606209,"ClosestIndexPointTitle":"Brumunddal: Bertil Gåbort","FirstTimeTransmitted":"1977-01-08T00:00:00"},{"TimeTagId":{"ProgrammeId":"FREP41008777","Time":"00:01:40"},"Thumbnail":"https://nrkpssniktittprodwe.blob.core.windows.net/preview/FREP41008777AA_00_01_42.jpg","Lng":10.75072,"Lat":60.38049,"LocationName":"Norge","Confidence":60,"ClosestIndexPointId":4605836,"ClosestIndexPointTitle":"Arendal: Nedre Tyholmen","FirstTimeTransmitted":"1977-01-08T00:00:00"},{"TimeTagId":{"ProgrammeId":"FREP41008777","Time":"00:22:34"},"Thumbnail":"https://nrkpssniktittprodwe.blob.core.windows.net/preview/FREP41008777AA_00_22_36.jpg","Lng":10.75072,"Lat":60.38049,"LocationName":"Norge","Confidence":60,"ClosestIndexPointId":4606197,"ClosestIndexPointTitle":"Jæren: Nærbø ønsker løsriving fra Hå kommune","FirstTimeTransmitted":"1977-01-08T00:00:00"},{"TimeTagId":{"ProgrammeId":"FREP41008777","Time":"00:18:04"},"Thumbnail":"https://nrkpssniktittprodwe.blob.core.windows.net/preview/FREP41008777AA_00_18_06.jpg","Lng":6.19138,"Lat":62.44085,"LocationName":"Langevåg","Confidence":60,"ClosestIndexPointId":4606189,"ClosestIndexPointTitle":"Sula: Landets nyeste kommunale enhet","FirstTimeTransmitted":"1977-01-08T00:00:00"},{"TimeTagId":{"ProgrammeId":"FREP41008777","Time":"00:13:07"},"Thumbnail":"https://nrkpssniktittprodwe.blob.core.windows.net/preview/FREP41008777AA_00_13_09.jpg","Lng":10.2784,"Lat":60.08017,"LocationName":"Hole","Confidence":60,"ClosestIndexPointId":4606084,"ClosestIndexPointTitle":"Hole: Om kommuneadministrasjon","FirstTimeTransmitted":"1977-01-08T00:00:00"},{"TimeTagId":{"ProgrammeId":"FREP41008777","Time":"00:06:18"},"Thumbnail":"https://nrkpssniktittprodwe.blob.core.windows.net/preview/FREP41008777AA_00_06_20.jpg","Lng":12.28916,"Lat":65.98427,"LocationName":"Herøy","Confidence":60,"ClosestIndexPointId":4605857,"ClosestIndexPointTitle":"Herøy: Banklinefiske","FirstTimeTransmitted":"1977-01-08T00:00:00"},{"TimeTagId":{"ProgrammeId":"FREP41008877","Time":"00:25:12"},"Thumbnail":"https://nrkpssniktittprodwe.blob.core.windows.net/preview/FREP41008877AA_00_25_14.jpg","Lng":11.49704,"Lat":64.46604,"LocationName":"Namsos","Confidence":60,"ClosestIndexPointId":4606506,"ClosestIndexPointTitle":"Namsos: Kjøreopplæring","FirstTimeTransmitted":"2012-01-22T00:00:00"},{"TimeTagId":{"ProgrammeId":"FREP41008877","Time":"00:22:20"},"Thumbnail":"https://nrkpssniktittprodwe.blob.core.windows.net/preview/FREP41008877AA_00_22_22.jpg","Lng":11.0311,"Lat":59.02809,"LocationName":"Hvaler","Confidence":60,"ClosestIndexPointId":4606495,"ClosestIndexPointTitle":"Hvaler: Bompenger","FirstTimeTransmitted":"2012-01-22T00:00:00"},{"TimeTagId":{"ProgrammeId":"FREP41008877","Time":"00:17:09"},"Thumbnail":"https://nrkpssniktittprodwe.blob.core.windows.net/preview/FREP41008877AA_00_17_11.jpg","Lng":5.32802,"Lat":60.392,"LocationName":"Bergen","Confidence":60,"ClosestIndexPointId":4606479,"ClosestIndexPointTitle":"Bergen: Bompenger","FirstTimeTransmitted":"2012-01-22T00:00:00"},{"TimeTagId":{"ProgrammeId":"FREP41008877","Time":"00:10:53"},"Thumbnail":"https://nrkpssniktittprodwe.blob.core.windows.net/preview/FREP41008877AA_00_10_55.jpg","Lng":6.16111,"Lat":59.15278,"LocationName":"Årdal","Confidence":60,"ClosestIndexPointId":4606475,"ClosestIndexPointTitle":"Hjelmeland: Kurs i kunstmaling","FirstTimeTransmitted":"2012-01-22T00:00:00"},{"TimeTagId":{"ProgrammeId":"FREP41008877","Time":"00:03:13"},"Thumbnail":"https://nrkpssniktittprodwe.blob.core.windows.net/preview/FREP41008877AA_00_03_15.jpg","Lng":7.99686,"Lat":58.14642,"LocationName":"Kristiansand","Confidence":60,"ClosestIndexPointId":4606455,"ClosestIndexPointTitle":"Kristiansand: Papirinnsamling","FirstTimeTransmitted":"2012-01-22T00:00:00"},{"TimeTagId":{"ProgrammeId":"FREP41008877","Time":"00:30:49"},"Thumbnail":"https://nrkpssniktittprodwe.blob.core.windows.net/preview/FREP41008877AA_00_30_51.jpg","Lng":10.39687,"Lat":63.42811,"LocationName":"Trondheim","Confidence":60,"ClosestIndexPointId":4606521,"ClosestIndexPointTitle":"Trondheim: Teater om veiplan","FirstTimeTransmitted":"2012-01-22T00:00:00"},{"TimeTagId":{"ProgrammeId":"FREP41008977","Time":"00:27:40"},"Thumbnail":"https://nrkpssniktittprodwe.blob.core.windows.net/preview/FREP41008977AA_00_27_42.jpg","Lng":7.1538,"Lat":62.85375,"LocationName":"Fræna kommune","Confidence":60,"ClosestIndexPointId":4612332,"ClosestIndexPointTitle":"Fræna: Kombinert bank- og bokbuss","FirstTimeTransmitted":"1977-02-05T00:00:00"},{"TimeTagId":{"ProgrammeId":"FREP41008977","Time":"00:25:56"},"Thumbnail":"https://nrkpssniktittprodwe.blob.core.windows.net/preview/FREP41008977AA_00_25_58.jpg","Lng":14.38305,"Lat":67.28324,"LocationName":"Bodø","Confidence":60,"ClosestIndexPointId":4612331,"ClosestIndexPointTitle":"Bodø: Gratis frokostpakke til alle passasjerer","FirstTimeTransmitted":"1977-02-05T00:00:00"},{"TimeTagId":{"ProgrammeId":"FREP41008977","Time":"00:19:48"},"Thumbnail":"https://nrkpssniktittprodwe.blob.core.windows.net/preview/FREP41008977AA_00_19_50.jpg","Lng":10.40942,"Lat":59.27114,"LocationName":"Tønsberg","Confidence":60,"ClosestIndexPointId":4612329,"ClosestIndexPointTitle":"Tønsberg: Ungdom og fritid","FirstTimeTransmitted":"1977-02-05T00:00:00"},{"TimeTagId":{"ProgrammeId":"FREP41008977","Time":"00:12:29"},"Thumbnail":"https://nrkpssniktittprodwe.blob.core.windows.net/preview/FREP41008977AA_00_12_31.jpg","Lng":10.83513,"Lat":59.93244,"LocationName":"Alnabru","Confidence":60,"ClosestIndexPointId":4612327,"ClosestIndexPointTitle":"Oslo: NSB sentralskiftestasjon","FirstTimeTransmitted":"1977-02-05T00:00:00"},{"TimeTagId":{"ProgrammeId":"FREP41008977","Time":"00:32:38"},"Thumbnail":"https://nrkpssniktittprodwe.blob.core.windows.net/preview/FREP41008977AA_00_32_40.jpg","Lng":15.5482,"Lat":68.65665,"LocationName":"Kjerringnesdalen","Confidence":60,"ClosestIndexPointId":4612335,"ClosestIndexPointTitle":"Sigerfjord: Stort orgel","FirstTimeTransmitted":"1977-02-05T00:00:00"},{"TimeTagId":{"ProgrammeId":"FREP41008977","Time":"00:08:57"},"Thumbnail":"https://nrkpssniktittprodwe.blob.core.windows.net/preview/FREP41008977AA_00_08_59.jpg","Lng":11.38709,"Lat":59.12258,"LocationName":"Halden","Confidence":60,"ClosestIndexPointId":4612317,"ClosestIndexPointTitle":"Halden: Dyreutstilling på Halden Lærerskole","FirstTimeTransmitted":"1977-02-05T00:00:00"},{"TimeTagId":{"ProgrammeId":"FREP41008977","Time":"00:00:38"},"Thumbnail":"https://nrkpssniktittprodwe.blob.core.windows.net/preview/FREP41008977AA_00_00_40.jpg","Lng":10.75072,"Lat":60.38049,"LocationName":"Norge","Confidence":60,"ClosestIndexPointId":4612315,"ClosestIndexPointTitle":"Sogndal: Til fjells med Televerket","FirstTimeTransmitted":"1977-02-05T00:00:00"},{"TimeTagId":{"ProgrammeId":"FREP41009077","Time":"00:29:55"},"Thumbnail":"https://nrkpssniktittprodwe.blob.core.windows.net/preview/FREP41009077AA_00_29_57.jpg","Lng":18.65338,"Lat":69.57168,"LocationName":"Straumsbukta","Confidence":60,"ClosestIndexPointId":4784073,"ClosestIndexPointTitle":"Straumsbukta: Kunder styrer butikken","FirstTimeTransmitted":"1977-02-19T00:00:00"},{"TimeTagId":{"ProgrammeId":"FREP41009077","Time":"00:22:25"},"Thumbnail":"https://nrkpssniktittprodwe.blob.core.windows.net/preview/FREP41009077AA_00_22_27.jpg","Lng":10.4296,"Lat":61.04604,"LocationName":"Vingrom","Confidence":60,"ClosestIndexPointId":4784072,"ClosestIndexPointTitle":"Vingrom: Foran VM i skiskyting","FirstTimeTransmitted":"1977-02-19T00:00:00"},{"TimeTagId":{"ProgrammeId":"FREP41009077","Time":"00:16:26"},"Thumbnail":"https://nrkpssniktittprodwe.blob.core.windows.net/preview/FREP41009077AA_00_16_28.jpg","Lng":11.21772,"Lat":64.07073,"LocationName":"Verran","Confidence":60,"ClosestIndexPointId":4784071,"ClosestIndexPointTitle":"Verran: Arbeidsledighet blant kvinner","FirstTimeTransmitted":"1977-02-19T00:00:00"},{"TimeTagId":{"ProgrammeId":"FREP41009077","Time":"00:11:43"},"Thumbnail":"https://nrkpssniktittprodwe.blob.core.windows.net/preview/FREP41009077AA_00_11_45.jpg","Lng":10.61498,"Lat":61.17554,"LocationName":"Nordseter","Confidence":60,"ClosestIndexPointId":4784070,"ClosestIndexPointTitle":"Lillehammer: Årets vinterferie","FirstTimeTransmitted":"1977-02-19T00:00:00"},{"TimeTagId":{"ProgrammeId":"FREP41009077","Time":"00:03:34"},"Thumbnail":"https://nrkpssniktittprodwe.blob.core.windows.net/preview/FREP41009077AA_00_03_36.jpg","Lng":29.72087,"Lat":70.63507,"LocationName":"Båtsfjord","Confidence":60,"ClosestIndexPointId":4784069,"ClosestIndexPointTitle":"Båtsfjord: Sildeoljefabrikken \"Norglobal\"","FirstTimeTransmitted":"1977-02-19T00:00:00"},{"TimeTagId":{"ProgrammeId":"FREP41009077","Time":"00:00:27"},"Thumbnail":"https://nrkpssniktittprodwe.blob.core.windows.net/preview/FREP41009077AA_00_00_29.jpg","Lng":10.75072,"Lat":60.38049,"LocationName":"Norge","Confidence":60,"ClosestIndexPointId":4784067,"ClosestIndexPointTitle":"Sogn og Fjordane: Folk i Sogn og Fjordane klager minst","FirstTimeTransmitted":"1977-02-19T00:00:00"},{"TimeTagId":{"ProgrammeId":"FREP41009177","Time":"00:30:05"},"Thumbnail":"https://nrkpssniktittprodwe.blob.core.windows.net/preview/FREP419177-AR-199051344_00_30_07.jpg","Lng":11.56314,"Lat":60.88159,"LocationName":"Elverum","Confidence":60,"ClosestIndexPointId":4617935,"ClosestIndexPointTitle":"Elverum: Grundsetmart'n","FirstTimeTransmitted":"1977-03-05T00:00:00"},{"TimeTagId":{"ProgrammeId":"FREP41009177","Time":"00:23:31"},"Thumbnail":"https://nrkpssniktittprodwe.blob.core.windows.net/preview/FREP419177-AR-199051344_00_23_33.jpg","Lng":9.92806,"Lat":60.23884,"LocationName":"Sokna","Confidence":60,"ClosestIndexPointId":4617920,"ClosestIndexPointTitle":"Ringerike: Svære snømengder, rådyr fores","FirstTimeTransmitted":"1977-03-05T00:00:00"},{"TimeTagId":{"ProgrammeId":"FREP41009177","Time":"00:18:07"},"Thumbnail":"https://nrkpssniktittprodwe.blob.core.windows.net/preview/FREP419177-AR-199051344_00_18_09.jpg","Lng":8.37852,"Lat":58.24972,"LocationName":"Lillesand","Confidence":60,"ClosestIndexPointId":4617915,"ClosestIndexPointTitle":"Lillesand: Bruk av Fluor","FirstTimeTransmitted":"1977-03-05T00:00:00"},{"TimeTagId":{"ProgrammeId":"FREP41009177","Time":"00:13:12"},"Thumbnail":"https://nrkpssniktittprodwe.blob.core.windows.net/preview/FREP419177-AR-199051344_00_13_14.jpg","Lng":23.29633,"Lat":69.97675,"LocationName":"Alta","Confidence":60,"ClosestIndexPointId":4617897,"ClosestIndexPointTitle":"Alta: Tømmerhogst","FirstTimeTransmitted":"1977-03-05T00:00:00"},{"TimeTagId":{"ProgrammeId":"FREP41009177","Time":"00:09:33"},"Thumbnail":"https://nrkpssniktittprodwe.blob.core.windows.net/preview/FREP419177-AR-199051344_00_09_35.jpg","Lng":10.69298,"Lat":59.40629,"LocationName":"Rygge","Confidence":60,"ClosestIndexPointId":4617896,"ClosestIndexPointTitle":"Rygge: Hemmelige Østfold","FirstTimeTransmitted":"1977-03-05T00:00:00"},{"TimeTagId":{"ProgrammeId":"FREP41009177","Time":"00:01:55"},"Thumbnail":"https://nrkpssniktittprodwe.blob.core.windows.net/preview/FREP419177-AR-199051344_00_01_57.jpg","Lng":5.32802,"Lat":60.392,"LocationName":"Bergen","Confidence":60,"ClosestIndexPointId":4617889,"ClosestIndexPointTitle":"Bergen: Vannmangel","FirstTimeTransmitted":"1977-03-05T00:00:00"},{"TimeTagId":{"ProgrammeId":"FREP42008478","Time":"00:34:43"},"Thumbnail":"https://nrkpssniktittprodwe.blob.core.windows.net/preview/FREP42008478AA_00_34_45.jpg","Lng":11.0075,"Lat":63.2248,"LocationName":"Selbu","Confidence":60,"ClosestIndexPointId":4204081,"ClosestIndexPointTitle":"Selbu: Syngende hund","FirstTimeTransmitted":"1978-05-12T00:00:00"},{"TimeTagId":{"ProgrammeId":"FREP42008478","Time":"00:23:55"},"Thumbnail":"https://nrkpssniktittprodwe.blob.core.windows.net/preview/FREP42008478AA_00_23_57.jpg","Lng":5.32907,"Lat":60.39826,"LocationName":"Bergen","Confidence":60,"ClosestIndexPointId":4204079,"ClosestIndexPointTitle":"Bergen: Buekorpsgutten Jacob Torsvik","FirstTimeTransmitted":"1978-05-12T00:00:00"},{"TimeTagId":{"ProgrammeId":"FREP42008478","Time":"00:19:14"},"Thumbnail":"https://nrkpssniktittprodwe.blob.core.windows.net/preview/FREP42008478AA_00_19_16.jpg","Lng":11.74298,"Lat":63.41406,"LocationName":"Meråker","Confidence":60,"ClosestIndexPointId":4204078,"ClosestIndexPointTitle":"Meråker: Harald Gilland og hans hjemmelagde Meråkerklarinett","FirstTimeTransmitted":"1978-05-12T00:00:00"},{"TimeTagId":{"ProgrammeId":"FREP42008478","Time":"00:13:30"},"Thumbnail":"https://nrkpssniktittprodwe.blob.core.windows.net/preview/FREP42008478AA_00_13_32.jpg","Lng":23.68207,"Lat":70.66336,"LocationName":"Hammerfest","Confidence":60,"ClosestIndexPointId":4204077,"ClosestIndexPointTitle":"Hammerfest / Vardø: Operetten H.M.S. Pinafore","FirstTimeTransmitted":"1978-05-12T00:00:00"},{"TimeTagId":{"ProgrammeId":"FREP42008478","Time":"00:06:58"},"Thumbnail":"https://nrkpssniktittprodwe.blob.core.windows.net/preview/FREP42008478AA_00_07_00.jpg","Lng":9.64885,"Lat":59.11146,"LocationName":"Herøya","Confidence":60,"ClosestIndexPointId":4204076,"ClosestIndexPointTitle":"Porsgrunn: Terje Welle Busk og hans lydstudio","FirstTimeTransmitted":"1978-05-12T00:00:00"},{"TimeTagId":{"ProgrammeId":"FREP42008478","Time":"00:01:01"},"Thumbnail":"https://nrkpssniktittprodwe.blob.core.windows.net/preview/FREP42008478AA_00_01_03.jpg","Lng":11.37373,"Lat":59.50065,"LocationName":"Trømborg","Confidence":60,"ClosestIndexPointId":4204075,"ClosestIndexPointTitle":"Trømborg: Trømborg skolekorps","FirstTimeTransmitted":"1978-05-12T00:00:00"},{"TimeTagId":{"ProgrammeId":"FREP42008578","Time":"00:15:01"},"Thumbnail":"https://nrkpssniktittprodwe.blob.core.windows.net/preview/FREP42008578AA_00_15_03.jpg","Lng":18.9585,"Lat":69.65575,"LocationName":"Tromsø","Confidence":60,"ClosestIndexPointId":4429018,"ClosestIndexPointTitle":"Tromsø: Laksefisker John Harald Benonisen","FirstTimeTransmitted":"1978-05-26T00:00:00"},{"TimeTagId":{"ProgrammeId":"FREP42008578","Time":"00:00:14"},"Thumbnail":"https://nrkpssniktittprodwe.blob.core.windows.net/preview/FREP42008578AA_00_00_16.jpg","Lng":18.95702,"Lat":69.64961,"LocationName":"Tromsø","Confidence":60,"ClosestIndexPointId":4308385,"ClosestIndexPointTitle":"Tromsø: Vårtegn og vårstemning","FirstTimeTransmitted":"1978-05-26T00:00:00"},{"TimeTagId":{"ProgrammeId":"FREP42008578","Time":"00:10:00"},"Thumbnail":"https://nrkpssniktittprodwe.blob.core.windows.net/preview/FREP42008578AA_00_10_02.jpg","Lng":19.49662,"Lat":70.24314,"LocationName":"Torsvåg","Confidence":60,"ClosestIndexPointId":4308384,"ClosestIndexPointTitle":"Torsvåg: Lineegnersken Bjørg Thomassen","FirstTimeTransmitted":"1978-05-26T00:00:00"},{"TimeTagId":{"ProgrammeId":"FREP42008578","Time":"00:16:55"},"Thumbnail":"https://nrkpssniktittprodwe.blob.core.windows.net/preview/FREP42008578AA_00_16_57.jpg","Lng":16.53928,"Lat":68.79878,"LocationName":"Harstad","Confidence":60,"ClosestIndexPointId":4308383,"ClosestIndexPointTitle":"Harstad: Utstopping av fisk og dyr","FirstTimeTransmitted":"1978-05-26T00:00:00"},{"TimeTagId":{"ProgrammeId":"FREP42008578","Time":"00:22:12"},"Thumbnail":"https://nrkpssniktittprodwe.blob.core.windows.net/preview/FREP42008578AA_00_22_14.jpg","Lng":18.95702,"Lat":69.64961,"LocationName":"Tromsø","Confidence":60,"ClosestIndexPointId":4308382,"ClosestIndexPointTitle":"Tromsø: Distriktskontoret til NRK under bygging","FirstTimeTransmitted":"1978-05-26T00:00:00"},{"TimeTagId":{"ProgrammeId":"FREP42008578","Time":"00:26:23"},"Thumbnail":"https://nrkpssniktittprodwe.blob.core.windows.net/preview/FREP42008578AA_00_26_25.jpg","Lng":23.0335,"Lat":68.9968,"LocationName":"Kautokeino","Confidence":60,"ClosestIndexPointId":4308381,"ClosestIndexPointTitle":"Kautokeino / Karesuando: Grensesamarbeid på Nordkalotten","FirstTimeTransmitted":"1978-05-26T00:00:00"},{"TimeTagId":{"ProgrammeId":"FREP42008678","Time":"00:30:20"},"Thumbnail":"https://nrkpssniktittprodwe.blob.core.windows.net/preview/FREP42008678_00_30_22.jpg","Lng":21.03309,"Lat":69.76964,"LocationName":"Nordreisa","Confidence":60,"ClosestIndexPointId":4436103,"ClosestIndexPointTitle":"Finnmarksvidda: Flytting av rein fra vinterbeite til sommerbeite","FirstTimeTransmitted":"1978-06-09T00:00:00"},{"TimeTagId":{"ProgrammeId":"FREP42008678","Time":"00:05:59"},"Thumbnail":"https://nrkpssniktittprodwe.blob.core.windows.net/preview/FREP42008678_00_06_01.jpg","Lng":8.93508,"Lat":58.62849,"LocationName":"Lyngmyr skole","Confidence":60,"ClosestIndexPointId":4435000,"ClosestIndexPointTitle":"Tvedestrand: Elevene dekorerer veggene på Lyngmyr skole","FirstTimeTransmitted":"1978-06-09T00:00:00"},{"TimeTagId":{"ProgrammeId":"FREP42008678","Time":"00:24:40"},"Thumbnail":"https://nrkpssniktittprodwe.blob.core.windows.net/preview/FREP42008678_00_24_42.jpg","Lng":8.76701,"Lat":58.46444,"LocationName":"Aust-Agder","Confidence":60,"ClosestIndexPointId":4435111,"ClosestIndexPointTitle":"Bykleheiene: Reindrift i Setesdal","FirstTimeTransmitted":"1978-06-09T00:00:00"},{"TimeTagId":{"ProgrammeId":"FREP42008678","Time":"00:18:46"},"Thumbnail":"https://nrkpssniktittprodwe.blob.core.windows.net/preview/FREP42008678_00_18_48.jpg","Lng":10.92981,"Lat":59.2181,"LocationName":"Fredrikstad","Confidence":60,"ClosestIndexPointId":4435095,"ClosestIndexPointTitle":"Fredrikstad: Oldtidsmarsjen","FirstTimeTransmitted":"1978-06-09T00:00:00"},{"TimeTagId":{"ProgrammeId":"FREP42008678","Time":"00:11:47"},"Thumbnail":"https://nrkpssniktittprodwe.blob.core.windows.net/preview/FREP42008678_00_11_49.jpg","Lng":5.32907,"Lat":60.39826,"LocationName":"Bergen","Confidence":60,"ClosestIndexPointId":4435055,"ClosestIndexPointTitle":"Bergen: Seilskipet Statsraad Lehmkuhl forfaller","FirstTimeTransmitted":"1978-06-09T00:00:00"},{"TimeTagId":{"ProgrammeId":"FREP42008678","Time":"00:01:40"},"Thumbnail":"https://nrkpssniktittprodwe.blob.core.windows.net/preview/FREP42008678_00_01_42.jpg","Lng":12.30772,"Lat":60.85462,"LocationName":"Haldammen","Confidence":60,"ClosestIndexPointId":4434935,"ClosestIndexPointTitle":"Haldammen: Tømmerfløting i Flisavassdraget","FirstTimeTransmitted":"1978-06-09T00:00:00"},{"TimeTagId":{"ProgrammeId":"FREP42008778","Time":"00:30:46"},"Thumbnail":"https://nrkpssniktittprodwe.blob.core.windows.net/preview/FREP42008778AA_00_30_48.jpg","Lng":8.56115,"Lat":60.63028,"LocationName":"Ål","Confidence":60,"ClosestIndexPointId":3337869,"ClosestIndexPointTitle":"Ål: Folkemusikkdagene i Hallingdal","FirstTimeTransmitted":"1978-06-23T00:00:00"},{"TimeTagId":{"ProgrammeId":"FREP42008778","Time":"00:27:16"},"Thumbnail":"https://nrkpssniktittprodwe.blob.core.windows.net/preview/FREP42008778AA_00_27_18.jpg","Lng":6.160412,"Lat":62.472894,"LocationName":"Ålesund","Confidence":100,"ClosestIndexPointId":3337868,"ClosestIndexPointTitle":"Ålesund: Elevutstillingen \"Forming 78\"","FirstTimeTransmitted":"1978-06-23T00:00:00"},{"TimeTagId":{"ProgrammeId":"FREP42008778","Time":"00:20:15"},"Thumbnail":"https://nrkpssniktittprodwe.blob.core.windows.net/preview/FREP42008778AA_00_20_17.jpg","Lng":8.585579,"Lat":58.344956,"LocationName":"Grimstad","Confidence":100,"ClosestIndexPointId":3337867,"ClosestIndexPointTitle":"Grimstad: Champagnevin av rabarbra","FirstTimeTransmitted":"1978-06-23T00:00:00"},{"TimeTagId":{"ProgrammeId":"FREP42008778","Time":"00:15:45"},"Thumbnail":"https://nrkpssniktittprodwe.blob.core.windows.net/preview/FREP42008778AA_00_15_47.jpg","Lng":15.713539,"Lat":67.205229,"LocationName":"Fauske","Confidence":100,"ClosestIndexPointId":3337866,"ClosestIndexPointTitle":"Fauske / Sjønstå: Fra filminnspillingen av \"Svarta Bjørn\"","FirstTimeTransmitted":"1978-06-23T00:00:00"},{"TimeTagId":{"ProgrammeId":"FREP42008778","Time":"00:09:30"},"Thumbnail":"https://nrkpssniktittprodwe.blob.core.windows.net/preview/FREP42008778AA_00_09_32.jpg","Lng":10.96749,"Lat":62.96809,"LocationName":"Gauldalen","Confidence":60,"ClosestIndexPointId":3337865,"ClosestIndexPointTitle":"Gauldal / Buvika / Bergen: Kunstutstilling med tre generasjoner Halvorsen","FirstTimeTransmitted":"1978-06-23T00:00:00"},{"TimeTagId":{"ProgrammeId":"FREP42008778","Time":"00:03:53"},"Thumbnail":"https://nrkpssniktittprodwe.blob.core.windows.net/preview/FREP42008778AA_00_03_55.jpg","Lng":6.20074,"Lat":60.38668,"LocationName":"Øystese","Confidence":60,"ClosestIndexPointId":3337864,"ClosestIndexPointTitle":"Øystese: Jonsokbryllup","FirstTimeTransmitted":"1978-06-23T00:00:00"},{"TimeTagId":{"ProgrammeId":"FREP42008878","Time":"00:33:01"},"Thumbnail":"https://nrkpssniktittprodwe.blob.core.windows.net/preview/FREP428878-AR-199316508_00_33_03.jpg","Lng":7.07003,"Lat":58.1376,"LocationName":"Lyngdal","Confidence":60,"ClosestIndexPointId":4527465,"ClosestIndexPointTitle":"Lyngdal: Nybyggerskole","FirstTimeTransmitted":"1978-07-07T00:00:00"},{"TimeTagId":{"ProgrammeId":"FREP42008878","Time":"00:16:55"},"Thumbnail":"https://nrkpssniktittprodwe.blob.core.windows.net/preview/FREP428878-AR-199316508_00_16_57.jpg","Lng":25.80458,"Lat":71.16732,"LocationName":"Nordkapp","Confidence":60,"ClosestIndexPointId":4527420,"ClosestIndexPointTitle":"Nordkapp: Nordkapp-marsj","FirstTimeTransmitted":"1978-07-07T00:00:00"},{"TimeTagId":{"ProgrammeId":"FREP42008878","Time":"00:01:23"},"Thumbnail":"https://nrkpssniktittprodwe.blob.core.windows.net/preview/FREP428878-AR-199316508_00_01_25.jpg","Lng":8.6562,"Lat":59.8497,"LocationName":"Gaustatoppen","Confidence":60,"ClosestIndexPointId":4526555,"ClosestIndexPointTitle":"Gaustatoppen: Utdeling av idrettsstatuett","FirstTimeTransmitted":"1978-07-07T00:00:00"},{"TimeTagId":{"ProgrammeId":"FREP42008878","Time":"00:07:01"},"Thumbnail":"https://nrkpssniktittprodwe.blob.core.windows.net/preview/FREP428878-AR-199316508_00_07_03.jpg","Lng":18.9585,"Lat":69.65575,"LocationName":"Tromsø","Confidence":60,"ClosestIndexPointId":4526595,"ClosestIndexPointTitle":"Tromsø: Plateprater setter rekord","FirstTimeTransmitted":"1978-07-07T00:00:00"},{"TimeTagId":{"ProgrammeId":"FREP42008878","Time":"00:10:35"},"Thumbnail":"https://nrkpssniktittprodwe.blob.core.windows.net/preview/FREP428878-AR-199316508_00_10_37.jpg","Lng":10.86493,"Lat":64.33774,"LocationName":"Oppland","Confidence":60,"ClosestIndexPointId":4527404,"ClosestIndexPointTitle":"Vestre Slidre i Valdres: Yrstad ljåsmie","FirstTimeTransmitted":"1978-07-07T00:00:00"},{"TimeTagId":{"ProgrammeId":"FREP42008878","Time":"00:26:08"},"Thumbnail":"https://nrkpssniktittprodwe.blob.core.windows.net/preview/FREP428878-AR-199316508_00_26_10.jpg","Lng":6.3405,"Lat":59.01696,"LocationName":"Lysefjorden","Confidence":60,"ClosestIndexPointId":4527435,"ClosestIndexPointTitle":"Rogaland: Turistattraksjon i Lysefjorden","FirstTimeTransmitted":"1978-07-07T00:00:00"},{"TimeTagId":{"ProgrammeId":"FREP42008878","Time":"00:22:58"},"Thumbnail":"https://nrkpssniktittprodwe.blob.core.windows.net/preview/FREP428878-AR-199316508_00_23_00.jpg","Lng":10.74609,"Lat":59.91273,"LocationName":"Oslo","Confidence":60,"ClosestIndexPointId":4527421,"ClosestIndexPointTitle":"Oslo: Iskremproduksjon","FirstTimeTransmitted":"1978-07-07T00:00:00"},{"TimeTagId":{"ProgrammeId":"FREP42008978","Time":"00:31:38"},"Thumbnail":"https://nrkpssniktittprodwe.blob.core.windows.net/preview/FREP42008978AA_00_31_40.jpg","Lng":12.03597,"Lat":66.1273,"LocationName":"Skibbåtsvær","Confidence":60,"ClosestIndexPointId":4557917,"ClosestIndexPointTitle":"Skibbåtsvær: Harry Brandelius på fisketur","FirstTimeTransmitted":"1978-07-21T00:00:00"},{"TimeTagId":{"ProgrammeId":"FREP42008978","Time":"00:30:23"},"Thumbnail":"https://nrkpssniktittprodwe.blob.core.windows.net/preview/FREP42008978AA_00_30_25.jpg","Lng":14.51292,"Lat":67.34185,"LocationName":"Geitvågen","Confidence":60,"ClosestIndexPointId":4557898,"ClosestIndexPointTitle":"Geitvågen: Badeliv ved Bodø","FirstTimeTransmitted":"1978-07-21T00:00:00"},{"TimeTagId":{"ProgrammeId":"FREP42008978","Time":"00:07:44"},"Thumbnail":"https://nrkpssniktittprodwe.blob.core.windows.net/preview/FREP42008978AA_00_07_46.jpg","Lng":14.61202,"Lat":67.32308,"LocationName":"Soløya","Confidence":60,"ClosestIndexPointId":4527825,"ClosestIndexPointTitle":"Soløya: Bodø Hestesenter","FirstTimeTransmitted":"1978-07-21T00:00:00"},{"TimeTagId":{"ProgrammeId":"FREP42008978","Time":"00:17:14"},"Thumbnail":"https://nrkpssniktittprodwe.blob.core.windows.net/preview/FREP42008978AA_00_17_16.jpg","Lng":7.45992,"Lat":61.44322,"LocationName":"Luster","Confidence":60,"ClosestIndexPointId":4532815,"ClosestIndexPointTitle":"Luster: Trygdebussen","FirstTimeTransmitted":"1978-07-21T00:00:00"},{"TimeTagId":{"ProgrammeId":"FREP42008978","Time":"00:15:33"},"Thumbnail":"https://nrkpssniktittprodwe.blob.core.windows.net/preview/FREP42008978AA_00_15_35.jpg","Lng":14.79962,"Lat":68.50246,"LocationName":"Melbu","Confidence":60,"ClosestIndexPointId":4532803,"ClosestIndexPointTitle":"Melbu i Vesterålen: Sommerradiobuss","FirstTimeTransmitted":"1978-07-21T00:00:00"},{"TimeTagId":{"ProgrammeId":"FREP42008978","Time":"00:01:40"},"Thumbnail":"https://nrkpssniktittprodwe.blob.core.windows.net/preview/FREP42008978AA_00_01_42.jpg","Lng":17.33965,"Lat":78.4493,"LocationName":"Svalbard","Confidence":60,"ClosestIndexPointId":4527824,"ClosestIndexPointTitle":"Svalbard: Sveagruva","FirstTimeTransmitted":"1978-07-21T00:00:00"},{"TimeTagId":{"ProgrammeId":"FREP42008978","Time":"00:10:35"},"Thumbnail":"https://nrkpssniktittprodwe.blob.core.windows.net/preview/FREP42008978AA_00_10_37.jpg","Lng":5.64768,"Lat":58.73536,"LocationName":"Bryne","Confidence":60,"ClosestIndexPointId":4530239,"ClosestIndexPointTitle":"Bryne: Hesteskoproduksjon på Jæren","FirstTimeTransmitted":"1978-07-21T00:00:00"},{"TimeTagId":{"ProgrammeId":"FREP42008978","Time":"00:22:42"},"Thumbnail":"https://nrkpssniktittprodwe.blob.core.windows.net/preview/FREP42008978AA_00_22_44.jpg","Lng":14.61544,"Lat":67.23153,"LocationName":"Saltstraumen","Confidence":60,"ClosestIndexPointId":4532835,"ClosestIndexPointTitle":"Bodø: Saltstraumen","FirstTimeTransmitted":"1978-07-21T00:00:00"},{"TimeTagId":{"ProgrammeId":"FREP42008978","Time":"00:25:24"},"Thumbnail":"https://nrkpssniktittprodwe.blob.core.windows.net/preview/FREP42008978AA_00_25_26.jpg","Lng":13.34777,"Lat":68.0353,"LocationName":"Nusfjord","Confidence":60,"ClosestIndexPointId":4557897,"ClosestIndexPointTitle":"Nusfjord / Hamnøy / Lofoten: Rorbuferie","FirstTimeTransmitted":"1978-07-21T00:00:00"},{"TimeTagId":{"ProgrammeId":"FREP42008978","Time":"00:00:23"},"Thumbnail":"https://nrkpssniktittprodwe.blob.core.windows.net/preview/FREP42008978AA_00_00_25.jpg","Lng":14.37513,"Lat":67.28267,"LocationName":"Bodø","Confidence":60,"ClosestIndexPointId":4557921,"ClosestIndexPointTitle":"Bodø sentrum: Åpning","FirstTimeTransmitted":"1978-07-21T00:00:00"},{"TimeTagId":{"ProgrammeId":"FREP42008978","Time":"00:36:40"},"Thumbnail":"https://nrkpssniktittprodwe.blob.core.windows.net/preview/FREP42008978AA_00_36_42.jpg","Lng":14.42623,"Lat":67.30272,"LocationName":"Rønvikfjellet","Confidence":60,"ClosestIndexPointId":4557919,"ClosestIndexPointTitle":"Rønvikfjellet: Midnattsol ved Landegode","FirstTimeTransmitted":"1978-07-21T00:00:00"},{"TimeTagId":{"ProgrammeId":"FREP42009078","Time":"00:26:52"},"Thumbnail":"https://nrkpssniktittprodwe.blob.core.windows.net/preview/FREP42009078AA_00_26_54.jpg","Lng":7.07194,"Lat":60.4675,"LocationName":"Eidfjord","Confidence":60,"ClosestIndexPointId":4558006,"ClosestIndexPointTitle":"Eidfjord: Tunnelarbeid i Hardanger","FirstTimeTransmitted":"1978-08-04T00:00:00"},{"TimeTagId":{"ProgrammeId":"FREP42009078","Time":"00:23:28"},"Thumbnail":"https://nrkpssniktittprodwe.blob.core.windows.net/preview/FREP42009078AA_00_23_30.jpg","Lng":5.26803,"Lat":59.41378,"LocationName":"Haugesund","Confidence":60,"ClosestIndexPointId":4558005,"ClosestIndexPointTitle":"Haugesund: Klippemaskin hos frisør Gunnar Rustad","FirstTimeTransmitted":"1978-08-04T00:00:00"},{"TimeTagId":{"ProgrammeId":"FREP42009078","Time":"00:18:56"},"Thumbnail":"https://nrkpssniktittprodwe.blob.core.windows.net/preview/FREP42009078AA_00_18_58.jpg","Lng":20.15407,"Lat":69.4414,"LocationName":"Furuflaten","Confidence":60,"ClosestIndexPointId":4557975,"ClosestIndexPointTitle":"Furuflaten: Grendehuset Furustua","FirstTimeTransmitted":"1978-08-04T00:00:00"},{"TimeTagId":{"ProgrammeId":"FREP42009078","Time":"00:12:13"},"Thumbnail":"https://nrkpssniktittprodwe.blob.core.windows.net/preview/FREP42009078AA_00_12_15.jpg","Lng":9.9256,"Lat":59.89195,"LocationName":"Åmot","Confidence":60,"ClosestIndexPointId":4557974,"ClosestIndexPointTitle":"Åmot: Landsstevne for Norges Bygdeungdomslag","FirstTimeTransmitted":"1978-08-04T00:00:00"},{"TimeTagId":{"ProgrammeId":"FREP42009078","Time":"00:06:29"},"Thumbnail":"https://nrkpssniktittprodwe.blob.core.windows.net/preview/FREP42009078AA_00_06_31.jpg","Lng":10.74609,"Lat":59.91273,"LocationName":"Oslo","Confidence":60,"ClosestIndexPointId":4557968,"ClosestIndexPointTitle":"Oslo: Ferietid og eldres situasjon","FirstTimeTransmitted":"1978-08-04T00:00:00"},{"TimeTagId":{"ProgrammeId":"FREP42009078","Time":"00:01:15"},"Thumbnail":"https://nrkpssniktittprodwe.blob.core.windows.net/preview/FREP42009078AA_00_01_17.jpg","Lng":9.62215,"Lat":58.94106,"LocationName":"Kjønnøya","Confidence":60,"ClosestIndexPointId":4557961,"ClosestIndexPointTitle":"Kjønnøya: Skien Malerklubb","FirstTimeTransmitted":"1978-08-04T00:00:00"},{"TimeTagId":{"ProgrammeId":"FREP42009178","Time":"00:01:27"},"Thumbnail":"https://nrkpssniktittprodwe.blob.core.windows.net/preview/FREP42009178AA_00_01_29.jpg","Lng":10.4428,"Lat":59.84917,"LocationName":"Jansløkka skole","Confidence":60,"ClosestIndexPointId":4567832,"ClosestIndexPointTitle":"Asker: Første skoledag på Jansløkka skole","FirstTimeTransmitted":"1978-08-18T00:00:00"},{"TimeTagId":{"ProgrammeId":"FREP42009178","Time":"00:21:34"},"Thumbnail":"https://nrkpssniktittprodwe.blob.core.windows.net/preview/FREP42009178AA_00_21_36.jpg","Lng":5.98514,"Lat":61.91134,"LocationName":"Nordfjordeid kyrkje","Confidence":60,"ClosestIndexPointId":4567962,"ClosestIndexPointTitle":"Nordfjordeid: Gammel båt funnet i naust","FirstTimeTransmitted":"1978-08-18T00:00:00"},{"TimeTagId":{"ProgrammeId":"FREP42009178","Time":"00:13:45"},"Thumbnail":"https://nrkpssniktittprodwe.blob.core.windows.net/preview/FREP42009178AA_00_13_47.jpg","Lng":17.33965,"Lat":78.4493,"LocationName":"Svalbard","Confidence":60,"ClosestIndexPointId":4567956,"ClosestIndexPointTitle":"Svalbard: Longyearbyen skole","FirstTimeTransmitted":"1978-08-18T00:00:00"},{"TimeTagId":{"ProgrammeId":"FREP42009178","Time":"00:06:23"},"Thumbnail":"https://nrkpssniktittprodwe.blob.core.windows.net/preview/FREP42009178AA_00_06_25.jpg","Lng":10.42167,"Lat":59.85164,"LocationName":"Sem","Confidence":60,"ClosestIndexPointId":4567922,"ClosestIndexPointTitle":"Asker: Bier på Institutt for biavl på Sem","FirstTimeTransmitted":"1978-08-18T00:00:00"},{"TimeTagId":{"ProgrammeId":"FREP42009178","Time":"00:18:36"},"Thumbnail":"https://nrkpssniktittprodwe.blob.core.windows.net/preview/FREP42009178AA_00_18_38.jpg","Lng":10.39506,"Lat":63.43049,"LocationName":"Trondheim","Confidence":60,"ClosestIndexPointId":4567957,"ClosestIndexPointTitle":"Trondheim: Sjøsetting av selvbygget betongbåt","FirstTimeTransmitted":"1978-08-18T00:00:00"},{"TimeTagId":{"ProgrammeId":"FREP42009178","Time":"00:24:58"},"Thumbnail":"https://nrkpssniktittprodwe.blob.core.windows.net/preview/FREP42009178AA_00_25_00.jpg","Lng":8.76701,"Lat":58.46444,"LocationName":"Aust-Agder","Confidence":60,"ClosestIndexPointId":4567975,"ClosestIndexPointTitle":"Froland: Utdanning av anleggsmaskinførere på Blakstad Yrkesskole","FirstTimeTransmitted":"1978-08-18T00:00:00"},{"TimeTagId":{"ProgrammeId":"FREP42009178","Time":"00:30:50"},"Thumbnail":"https://nrkpssniktittprodwe.blob.core.windows.net/preview/FREP42009178AA_00_30_52.jpg","Lng":10.9604,"Lat":59.20047,"LocationName":"Kongstenhallen","Confidence":60,"ClosestIndexPointId":4568749,"ClosestIndexPointTitle":"Fredrikstad: Blomsterutstilling i Kongstenhallen med musikalsk avslutning","FirstTimeTransmitted":"1978-08-18T00:00:00"},{"TimeTagId":{"ProgrammeId":"FREP42009278","Time":"00:01:26"},"Thumbnail":"https://nrkpssniktittprodwe.blob.core.windows.net/preview/FREP42009278AA_00_01_28.jpg","Lng":-8.5,"Lat":70.98333,"LocationName":"Jan Mayen","Confidence":60,"ClosestIndexPointId":4308487,"ClosestIndexPointTitle":"Jan Mayen: Botaniske undersøkelser","FirstTimeTransmitted":"1978-09-01T00:00:00"},{"TimeTagId":{"ProgrammeId":"FREP42009278","Time":"00:07:52"},"Thumbnail":"https://nrkpssniktittprodwe.blob.core.windows.net/preview/FREP42009278AA_00_07_54.jpg","Lng":5.3459,"Lat":60.26342,"LocationName":"Fana","Confidence":60,"ClosestIndexPointId":4308486,"ClosestIndexPointTitle":"Fana: Ambulerende servicetiltak for eldre","FirstTimeTransmitted":"1978-09-01T00:00:00"},{"TimeTagId":{"ProgrammeId":"FREP42009278","Time":"00:13:12"},"Thumbnail":"https://nrkpssniktittprodwe.blob.core.windows.net/preview/FREP42009278AA_00_13_14.jpg","Lng":9.40723,"Lat":63.66306,"LocationName":"Storfosna","Confidence":60,"ClosestIndexPointId":4308485,"ClosestIndexPointTitle":"Storfosna: Karusellfjøsdrift på Storfosen gods","FirstTimeTransmitted":"1978-09-01T00:00:00"},{"TimeTagId":{"ProgrammeId":"FREP42009278","Time":"00:18:19"},"Thumbnail":"https://nrkpssniktittprodwe.blob.core.windows.net/preview/FREP42009278AA_00_18_21.jpg","Lng":11.23431,"Lat":59.63849,"LocationName":"Tosebygda","Confidence":60,"ClosestIndexPointId":4308484,"ClosestIndexPointTitle":"Trøgstad: Grendehus bygget på dugnad i Tosebygda","FirstTimeTransmitted":"1978-09-01T00:00:00"},{"TimeTagId":{"ProgrammeId":"FREP42009278","Time":"00:23:05"},"Thumbnail":"https://nrkpssniktittprodwe.blob.core.windows.net/preview/FREP42009278AA_00_23_07.jpg","Lng":8.63018,"Lat":59.48477,"LocationName":"Seljord","Confidence":60,"ClosestIndexPointId":4308483,"ClosestIndexPointTitle":"Seljord: Landsstevne for Norsk Islandshestforening","FirstTimeTransmitted":"1978-09-01T00:00:00"},{"TimeTagId":{"ProgrammeId":"FREP44005478","Time":"00:05:53"},"Thumbnail":"https://nrkpssniktittprodwe.blob.core.windows.net/preview/FREP44005478_00_05_55.jpg","Lng":8.76695,"Lat":58.46121,"LocationName":"Arendal","Confidence":60,"ClosestIndexPointId":4568899,"ClosestIndexPointTitle":"Arendal: Sørlandet seilflyklubb","FirstTimeTransmitted":"1978-09-15T00:00:00"},{"TimeTagId":{"ProgrammeId":"FREP44005478","Time":"00:31:25"},"Thumbnail":"https://nrkpssniktittprodwe.blob.core.windows.net/preview/FREP44005478_00_31_27.jpg","Lng":11.94836,"Lat":64.49359,"LocationName":"Ranemsletta","Confidence":60,"ClosestIndexPointId":4568983,"ClosestIndexPointTitle":"Overhalla: Matias Elverum røyker laks på tradisjonelt vis","FirstTimeTransmitted":"1978-09-15T00:00:00"},{"TimeTagId":{"ProgrammeId":"FREP44005478","Time":"00:29:35"},"Thumbnail":"https://nrkpssniktittprodwe.blob.core.windows.net/preview/FREP44005478_00_29_37.jpg","Lng":10.3922,"Lat":63.43382,"LocationName":"Ravnkloa","Confidence":60,"ClosestIndexPointId":4568966,"ClosestIndexPointTitle":"Trondheim: Ravnkloa fiskehall","FirstTimeTransmitted":"1978-09-15T00:00:00"},{"TimeTagId":{"ProgrammeId":"FREP44005478","Time":"00:24:22"},"Thumbnail":"https://nrkpssniktittprodwe.blob.core.windows.net/preview/FREP44005478_00_24_24.jpg","Lng":10.39451,"Lat":63.42917,"LocationName":"Sør-Trøndelag","Confidence":60,"ClosestIndexPointId":4568964,"ClosestIndexPointTitle":"Trondheim: Fra Vassdrags- og havnelaboratoriet","FirstTimeTransmitted":"1978-09-15T00:00:00"},{"TimeTagId":{"ProgrammeId":"FREP44005478","Time":"00:20:06"},"Thumbnail":"https://nrkpssniktittprodwe.blob.core.windows.net/preview/FREP44005478_00_20_08.jpg","Lng":11.10781,"Lat":63.81917,"LocationName":"Trondheimsfjorden","Confidence":60,"ClosestIndexPointId":4568962,"ClosestIndexPointTitle":"Trondheimsfjorden: Godsbåtene langs fjorden legges ned","FirstTimeTransmitted":"1978-09-15T00:00:00"},{"TimeTagId":{"ProgrammeId":"FREP44005478","Time":"00:18:31"},"Thumbnail":"https://nrkpssniktittprodwe.blob.core.windows.net/preview/FREP44005478_00_18_33.jpg","Lng":10.35651,"Lat":63.35127,"LocationName":"Heimdal","Confidence":60,"ClosestIndexPointId":4568940,"ClosestIndexPointTitle":"Heimdal: Linjegodsterminalen","FirstTimeTransmitted":"1978-09-15T00:00:00"},{"TimeTagId":{"ProgrammeId":"FREP44005478","Time":"00:13:38"},"Thumbnail":"https://nrkpssniktittprodwe.blob.core.windows.net/preview/FREP44005478_00_13_40.jpg","Lng":18.94451,"Lat":69.64421,"LocationName":"Troms","Confidence":60,"ClosestIndexPointId":4568938,"ClosestIndexPointTitle":"Troms: Rypefarm ved Universitetet i Tromsø","FirstTimeTransmitted":"1978-09-15T00:00:00"},{"TimeTagId":{"ProgrammeId":"FREP44005478","Time":"00:12:07"},"Thumbnail":"https://nrkpssniktittprodwe.blob.core.windows.net/preview/FREP44005478_00_12_09.jpg","Lng":10.39451,"Lat":63.42917,"LocationName":"Sør-Trøndelag","Confidence":60,"ClosestIndexPointId":4568936,"ClosestIndexPointTitle":"Trondheim: Programleder Ingvar Rostad får servert ryper i Palmehaven","FirstTimeTransmitted":"1978-09-15T00:00:00"},{"TimeTagId":{"ProgrammeId":"FREP44005478","Time":"00:00:25"},"Thumbnail":"https://nrkpssniktittprodwe.blob.core.windows.net/preview/FREP44005478_00_00_27.jpg","Lng":10.39974,"Lat":63.43009,"LocationName":"Frimurerlogen","Confidence":60,"ClosestIndexPointId":4568860,"ClosestIndexPointTitle":"Trondheim: Arve Tellefsen debuterer som dirigent","FirstTimeTransmitted":"1978-09-15T00:00:00"},{"TimeTagId":{"ProgrammeId":"FREP44005478","Time":"00:26:22"},"Thumbnail":"https://nrkpssniktittprodwe.blob.core.windows.net/preview/FREP44005478_00_26_24.jpg","Lng":11.00354,"Lat":63.21992,"LocationName":"NEA","Confidence":60,"ClosestIndexPointId":4568965,"ClosestIndexPointTitle":"Selbu: Elva Nea får vannet tilbake","FirstTimeTransmitted":"1978-09-15T00:00:00"},{"TimeTagId":{"ProgrammeId":"FREP44005478","Time":"00:03:59"},"Thumbnail":"https://nrkpssniktittprodwe.blob.core.windows.net/preview/FREP44005478_00_04_01.jpg","Lng":10.39451,"Lat":63.42917,"LocationName":"Sør-Trøndelag","Confidence":60,"ClosestIndexPointId":4568861,"ClosestIndexPointTitle":"Trondheim: Professor Torstein Fanneløp i gasslaboratoriet ved NTH","FirstTimeTransmitted":"1978-09-15T00:00:00"},{"TimeTagId":{"ProgrammeId":"FREP44005578","Time":"00:09:16"},"Thumbnail":"https://nrkpssniktittprodwe.blob.core.windows.net/preview/FREP44005578_00_09_18.jpg","Lng":11.19035,"Lat":59.35053,"LocationName":"Varteig kirke","Confidence":60,"ClosestIndexPointId":4437356,"ClosestIndexPointTitle":"Varteig / Sarpsborg: Utstilling og innsamling av gamle fotografier fra Østfold","FirstTimeTransmitted":"1978-09-29T00:00:00"},{"TimeTagId":{"ProgrammeId":"FREP44005578","Time":"00:01:44"},"Thumbnail":"https://nrkpssniktittprodwe.blob.core.windows.net/preview/FREP44005578_00_01_46.jpg","Lng":8.89244,"Lat":58.46203,"LocationName":"Tromøya","Confidence":60,"ClosestIndexPointId":4308390,"ClosestIndexPointTitle":"Tromøya ved Arendal: Fregatten Fredensborg","FirstTimeTransmitted":"1978-09-29T00:00:00"},{"TimeTagId":{"ProgrammeId":"FREP44005578","Time":"00:22:23"},"Thumbnail":"https://nrkpssniktittprodwe.blob.core.windows.net/preview/FREP44005578_00_22_25.jpg","Lng":24.17851,"Lat":69.66572,"LocationName":"Iešjavri","Confidence":60,"ClosestIndexPointId":4308388,"ClosestIndexPointTitle":"Finnmark: Røyefiske på Jiesjavrre","FirstTimeTransmitted":"1978-09-29T00:00:00"},{"TimeTagId":{"ProgrammeId":"FREP44005578","Time":"00:27:33"},"Thumbnail":"https://nrkpssniktittprodwe.blob.core.windows.net/preview/FREP44005578_00_27_35.jpg","Lng":10.74609,"Lat":59.91273,"LocationName":"Oslo","Confidence":60,"ClosestIndexPointId":4308387,"ClosestIndexPointTitle":"Oslo: Saturday Night Fever på danseskolen","FirstTimeTransmitted":"1978-09-29T00:00:00"},{"TimeTagId":{"ProgrammeId":"FREP44005678","Time":"00:24:26"},"Thumbnail":"https://nrkpssniktittprodwe.blob.core.windows.net/preview/FREP44005678_00_24_28.jpg","Lng":10.777502,"Lat":59.664598,"LocationName":"Ås","Confidence":100,"ClosestIndexPointId":3832088,"ClosestIndexPointTitle":"Ås: Studenteruke på Norges Landbrukshøgskole","FirstTimeTransmitted":"1978-10-13T00:00:00"},{"TimeTagId":{"ProgrammeId":"FREP44005678","Time":"00:18:25"},"Thumbnail":"https://nrkpssniktittprodwe.blob.core.windows.net/preview/FREP44005678_00_18_27.jpg","Lng":31.105278,"Lat":70.371915,"LocationName":"Vardø","Confidence":100,"ClosestIndexPointId":3832087,"ClosestIndexPointTitle":"Vardø: Fiskerifagskole","FirstTimeTransmitted":"1978-10-13T00:00:00"},{"TimeTagId":{"ProgrammeId":"FREP44005678","Time":"00:12:36"},"Thumbnail":"https://nrkpssniktittprodwe.blob.core.windows.net/preview/FREP44005678_00_12_38.jpg","Lng":10.34933,"Lat":61.60357,"LocationName":"Ringebufjellet","Confidence":60,"ClosestIndexPointId":3832086,"ClosestIndexPointTitle":"Ringebufjellet / Lillehammer: Saueklipping","FirstTimeTransmitted":"1978-10-13T00:00:00"},{"TimeTagId":{"ProgrammeId":"FREP44005678","Time":"00:07:35"},"Thumbnail":"https://nrkpssniktittprodwe.blob.core.windows.net/preview/FREP44005678_00_07_37.jpg","Lng":8.93107,"Lat":58.62266,"LocationName":"Tvedestrand","Confidence":60,"ClosestIndexPointId":3832085,"ClosestIndexPointTitle":"Tvedestrand: Rådhuset under oppussing","FirstTimeTransmitted":"1978-10-13T00:00:00"},{"TimeTagId":{"ProgrammeId":"FREP44005678","Time":"00:00:46"},"Thumbnail":"https://nrkpssniktittprodwe.blob.core.windows.net/preview/FREP44005678_00_00_48.jpg","Lng":5.510287,"Lat":58.917321,"LocationName":"Rott","Confidence":100,"ClosestIndexPointId":3832084,"ClosestIndexPointTitle":"Rott: Hummerfiske på Rogalandskysten","FirstTimeTransmitted":"1978-10-13T00:00:00"},{"TimeTagId":{"ProgrammeId":"FREP44005778","Time":"00:32:14"},"Thumbnail":"https://nrkpssniktittprodwe.blob.core.windows.net/preview/FREP44005778AA_00_32_16.jpg","Lng":10.74894,"Lat":59.91481,"LocationName":"Youngstorget","Confidence":60,"ClosestIndexPointId":4308493,"ClosestIndexPointTitle":"Oslo: Kampanje mot hundemøkk","FirstTimeTransmitted":"1978-10-27T00:00:00"},{"TimeTagId":{"ProgrammeId":"FREP44005778","Time":"00:24:57"},"Thumbnail":"https://nrkpssniktittprodwe.blob.core.windows.net/preview/FREP44005778AA_00_24_59.jpg","Lng":19.7008,"Lat":70.18191,"LocationName":"Vannøya","Confidence":60,"ClosestIndexPointId":4308492,"ClosestIndexPointTitle":"Troms: I fjæra på øya Vanna med far og sønn Bratrein","FirstTimeTransmitted":"1978-10-27T00:00:00"},{"TimeTagId":{"ProgrammeId":"FREP44005778","Time":"00:20:33"},"Thumbnail":"https://nrkpssniktittprodwe.blob.core.windows.net/preview/FREP44005778AA_00_20_35.jpg","Lng":7.76595,"Lat":62.94963,"LocationName":"Gjemnes","Confidence":60,"ClosestIndexPointId":4308491,"ClosestIndexPointTitle":"Heggem: Reveoppdrett på pelsdyrfarm","FirstTimeTransmitted":"1978-10-27T00:00:00"},{"TimeTagId":{"ProgrammeId":"FREP44005778","Time":"00:14:11"},"Thumbnail":"https://nrkpssniktittprodwe.blob.core.windows.net/preview/FREP44005778AA_00_14_13.jpg","Lng":5.09328,"Lat":59.89887,"LocationName":"Brandasund","Confidence":60,"ClosestIndexPointId":4308490,"ClosestIndexPointTitle":"Brandasund: Veiforbindelse","FirstTimeTransmitted":"1978-10-27T00:00:00"},{"TimeTagId":{"ProgrammeId":"FREP44005778","Time":"00:07:57"},"Thumbnail":"https://nrkpssniktittprodwe.blob.core.windows.net/preview/FREP44005778AA_00_07_59.jpg","Lng":8.97591,"Lat":63.60151,"LocationName":"Hitra","Confidence":60,"ClosestIndexPointId":4308489,"ClosestIndexPointTitle":"Hitra: Presteekteparet Fauske","FirstTimeTransmitted":"1978-10-27T00:00:00"},{"TimeTagId":{"ProgrammeId":"FREP44005778","Time":"00:01:24"},"Thumbnail":"https://nrkpssniktittprodwe.blob.core.windows.net/preview/FREP44005778AA_00_01_26.jpg","Lng":11.08557,"Lat":59.61708,"LocationName":"Spydeberg","Confidence":60,"ClosestIndexPointId":4308488,"ClosestIndexPointTitle":"Spydeberg: Ørretdam","FirstTimeTransmitted":"1978-10-27T00:00:00"},{"TimeTagId":{"ProgrammeId":"FREP44005878","Time":"00:01:55"},"Thumbnail":"https://nrkpssniktittprodwe.blob.core.windows.net/preview/FREP44005878AA_00_01_57.jpg","Lng":10.86493,"Lat":64.33774,"LocationName":"Oppland","Confidence":60,"ClosestIndexPointId":4437855,"ClosestIndexPointTitle":"Dokka: Notfiske i Dokkaelva ved Randsfjorden","FirstTimeTransmitted":"1978-11-10T00:00:00"},{"TimeTagId":{"ProgrammeId":"FREP44005878","Time":"00:29:31"},"Thumbnail":"https://nrkpssniktittprodwe.blob.core.windows.net/preview/FREP44005878AA_00_29_33.jpg","Lng":10.46628,"Lat":61.11514,"LocationName":"Lillehammer","Confidence":60,"ClosestIndexPointId":4440175,"ClosestIndexPointTitle":"Lillehammer: Guren Hagen spiller \"Slipsteinsvalsen\"","FirstTimeTransmitted":"1978-11-10T00:00:00"},{"TimeTagId":{"ProgrammeId":"FREP44005878","Time":"00:22:51"},"Thumbnail":"https://nrkpssniktittprodwe.blob.core.windows.net/preview/FREP44005878AA_00_22_53.jpg","Lng":11.99772,"Lat":60.19049,"LocationName":"Kongsvinger","Confidence":60,"ClosestIndexPointId":4440128,"ClosestIndexPointTitle":"Kongsvinger: Trekkspilluka","FirstTimeTransmitted":"1978-11-10T00:00:00"},{"TimeTagId":{"ProgrammeId":"FREP44005878","Time":"00:18:33"},"Thumbnail":"https://nrkpssniktittprodwe.blob.core.windows.net/preview/FREP44005878AA_00_18_35.jpg","Lng":10.86493,"Lat":64.33774,"LocationName":"Oppland","Confidence":60,"ClosestIndexPointId":4439993,"ClosestIndexPointTitle":"Valdres: Haldor Hegge om altertavlen i Hegge stavkyrkje","FirstTimeTransmitted":"1978-11-10T00:00:00"},{"TimeTagId":{"ProgrammeId":"FREP44005878","Time":"00:11:48"},"Thumbnail":"https://nrkpssniktittprodwe.blob.core.windows.net/preview/FREP44005878AA_00_11_50.jpg","Lng":11.08273,"Lat":60.79528,"LocationName":"Hedmark","Confidence":60,"ClosestIndexPointId":4439992,"ClosestIndexPointTitle":"Stange: Ungdom i Oppdrag på Grimerud gård","FirstTimeTransmitted":"1978-11-10T00:00:00"},{"TimeTagId":{"ProgrammeId":"FREP44005878","Time":"00:00:30"},"Thumbnail":"https://nrkpssniktittprodwe.blob.core.windows.net/preview/FREP44005878AA_00_00_32.jpg","Lng":10.46628,"Lat":61.11514,"LocationName":"Lillehammer","Confidence":60,"ClosestIndexPointId":4308393,"ClosestIndexPointTitle":"Hedmark / Oppland: Fra NRKs distriktskontor","FirstTimeTransmitted":"1978-11-10T00:00:00"},{"TimeTagId":{"ProgrammeId":"FREP44005878","Time":"00:07:15"},"Thumbnail":"https://nrkpssniktittprodwe.blob.core.windows.net/preview/FREP44005878AA_00_07_17.jpg","Lng":10.46628,"Lat":61.11514,"LocationName":"Lillehammer","Confidence":60,"ClosestIndexPointId":4308392,"ClosestIndexPointTitle":"Lillehammer: Torunn Einbu og Geir Salvesen fremfører \"En natt forbi\"","FirstTimeTransmitted":"1978-11-10T00:00:00"},{"TimeTagId":{"ProgrammeId":"FREP44005878","Time":"00:10:23"},"Thumbnail":"https://nrkpssniktittprodwe.blob.core.windows.net/preview/FREP44005878AA_00_10_25.jpg","Lng":11.06796,"Lat":60.79451,"LocationName":"Hamar","Confidence":60,"ClosestIndexPointId":4308391,"ClosestIndexPointTitle":"Lillehammer / Hamar: Distriktsradioens lokaler","FirstTimeTransmitted":"1978-11-10T00:00:00"},{"TimeTagId":{"ProgrammeId":"FREP44005978","Time":"00:01:17"},"Thumbnail":"https://nrkpssniktittprodwe.blob.core.windows.net/preview/FREP44005978_00_01_19.jpg","Lng":8.67602,"Lat":58.3782,"LocationName":"Fevik","Confidence":60,"ClosestIndexPointId":4308400,"ClosestIndexPointTitle":"Fevik: Ridning for funksjonshemmede i Arendal og Grimstad Rideklubb","FirstTimeTransmitted":"1978-11-24T00:00:00"},{"TimeTagId":{"ProgrammeId":"FREP44005978","Time":"00:06:30"},"Thumbnail":"https://nrkpssniktittprodwe.blob.core.windows.net/preview/FREP44005978_00_06_32.jpg","Lng":6.15818,"Lat":62.474,"LocationName":"Ålesund","Confidence":60,"ClosestIndexPointId":4308399,"ClosestIndexPointTitle":"Ålesund: Sjøkartverket","FirstTimeTransmitted":"1978-11-24T00:00:00"},{"TimeTagId":{"ProgrammeId":"FREP44005978","Time":"00:13:00"},"Thumbnail":"https://nrkpssniktittprodwe.blob.core.windows.net/preview/FREP44005978_00_13_02.jpg","Lng":5.71797,"Lat":58.96527,"LocationName":"Stavanger","Confidence":60,"ClosestIndexPointId":4308398,"ClosestIndexPointTitle":"Stavanger: Knytting av persiske tepper","FirstTimeTransmitted":"1978-11-24T00:00:00"},{"TimeTagId":{"ProgrammeId":"FREP44005978","Time":"00:17:56"},"Thumbnail":"https://nrkpssniktittprodwe.blob.core.windows.net/preview/FREP44005978_00_17_58.jpg","Lng":28.217,"Lat":71.0888,"LocationName":"Slettnes fyr","Confidence":60,"ClosestIndexPointId":4308397,"ClosestIndexPointTitle":"Vadsø: Fyrmesteren på Slettnes fyr","FirstTimeTransmitted":"1978-11-24T00:00:00"},{"TimeTagId":{"ProgrammeId":"FREP44005978","Time":"00:23:32"},"Thumbnail":"https://nrkpssniktittprodwe.blob.core.windows.net/preview/FREP44005978_00_23_34.jpg","Lng":18.15292,"Lat":69.14526,"LocationName":"Sørreisa","Confidence":60,"ClosestIndexPointId":4308396,"ClosestIndexPointTitle":"Sørreisa: 105-åringen Ingebrikt Johansen","FirstTimeTransmitted":"1978-11-24T00:00:00"},{"TimeTagId":{"ProgrammeId":"FREP44005978","Time":"00:28:39"},"Thumbnail":"https://nrkpssniktittprodwe.blob.core.windows.net/preview/FREP44005978_00_28_41.jpg","Lng":10.95865,"Lat":59.92969,"LocationName":"Kjenn skole","Confidence":60,"ClosestIndexPointId":4308395,"ClosestIndexPointTitle":"Lørenskog: Kaninutstilling","FirstTimeTransmitted":"1978-11-24T00:00:00"},{"TimeTagId":{"ProgrammeId":"FREP44005978","Time":"00:33:00"},"Thumbnail":"https://nrkpssniktittprodwe.blob.core.windows.net/preview/FREP44005978_00_33_02.jpg","Lng":10.74609,"Lat":59.91273,"LocationName":"Oslo","Confidence":60,"ClosestIndexPointId":4308394,"ClosestIndexPointTitle":"Oslo: Club 7 fyller 15 år","FirstTimeTransmitted":"1978-11-24T00:00:00"},{"TimeTagId":{"ProgrammeId":"FREP44006078","Time":"00:28:55"},"Thumbnail":"https://nrkpssniktittprodwe.blob.core.windows.net/preview/FREP44006078AA_00_28_57.jpg","Lng":5.32748,"Lat":60.47123,"LocationName":"Åsane","Confidence":60,"ClosestIndexPointId":4308499,"ClosestIndexPointTitle":"Åsane: Mesterskap i ludo","FirstTimeTransmitted":"1978-12-08T00:00:00"},{"TimeTagId":{"ProgrammeId":"FREP44006078","Time":"00:23:53"},"Thumbnail":"https://nrkpssniktittprodwe.blob.core.windows.net/preview/FREP44006078AA_00_23_55.jpg","Lng":16.11941,"Lat":69.31435,"LocationName":"Andenes","Confidence":60,"ClosestIndexPointId":4308498,"ClosestIndexPointTitle":"Andenes: Andøya Avis","FirstTimeTransmitted":"1978-12-08T00:00:00"},{"TimeTagId":{"ProgrammeId":"FREP44006078","Time":"00:18:57"},"Thumbnail":"https://nrkpssniktittprodwe.blob.core.windows.net/preview/FREP44006078AA_00_18_59.jpg","Lng":6.07108,"Lat":62.146,"LocationName":"Volda","Confidence":60,"ClosestIndexPointId":4308497,"ClosestIndexPointTitle":"Volda: Feiring av St. Nikolas","FirstTimeTransmitted":"1978-12-08T00:00:00"},{"TimeTagId":{"ProgrammeId":"FREP44006078","Time":"00:13:32"},"Thumbnail":"https://nrkpssniktittprodwe.blob.core.windows.net/preview/FREP44006078AA_00_13_34.jpg","Lng":10.3933,"Lat":59.1109,"LocationName":"Tjøme","Confidence":60,"ClosestIndexPointId":4308496,"ClosestIndexPointTitle":"Tjøme: Blåskjellfarm hos Bjørn Arne og Tore Ingolf Hansen","FirstTimeTransmitted":"1978-12-08T00:00:00"},{"TimeTagId":{"ProgrammeId":"FREP44006078","Time":"00:07:28"},